Cell_id,Cell_Latitude,Cell_Longitude,Venue_Id,Venue_Name,Venue_All_Categories,Venue_Latitude,Venue_Longitude,Venue_Location,Venue_Distance,Borough_Name,Venue_Category_Name,Venue_Category_Id
"55.571743835169556,37.63176316119101",55.57174383516956,37.631763161191,4ff1ab36e4b07928d9e7120e,Gym,"[('Gym', '4bf58dd8d48988d176941735')]",55.57386428862442,37.63358102713139,Россия,262,Бирюлёво Западное,Gym,4bf58dd8d48988d176941735
"55.59910529548291,37.51572272041661",55.5991052954829,37.515722720416605,5177e656ebca4ca60c765182,Стадион школы №108,"[('Track', '4bf58dd8d48988d106941735')]",55.59879285095339,37.516917115779904,пр. Одоевского,82,Ясенево,Track,4bf58dd8d48988d106941735
"55.5974014487817,37.524517980442816",55.5974014487817,37.524517980442816,51718c6ee4b08e116164687e,Фитнес-центр «Мореон»,"[('Gym / Fitness Center', '4bf58dd8d48988d175941735')]",55.597151633539845,37.52790469437889,"Аквапарк МОРЕОН (Голубинская ул., 16), 117574",214,Ясенево,Gym / Fitness Center,4bf58dd8d48988d175941735
"55.60426998401298,37.513930357286405",55.60426998401297,37.513930357286405,4f5dd5a5a17c35d9519a12c0,"Бассейн ""Ясенево""","[('Gym Pool', '4bf58dd8d48988d105941735')]",55.60444373279786,37.51907462621581,"Вильнюсская ул., 6, к. 1, 117574",324,Ясенево,Gym Pool,4bf58dd8d48988d105941735
"55.60256616217147,37.522726887188554",55.60256616217147,37.52272688718856,50a9fcd4e4b0702a836692cd,Физкультурно-оздоровительный комплекс Ясенево,"[('Gym', '4bf58dd8d48988d176941735')]",55.60476795210455,37.51977300335089,"Вильнюсская ул., 6, к. 2, 117574",307,Ясенево,Gym,4bf58dd8d48988d176941735
"55.60086174357737,37.53152247537872",55.60086174357737,37.531522475378715,4f1d1e0ce4b05c50e44b36ae,Центр йоги и здоровья в Ясенево,"[('Yoga Studio', '4bf58dd8d48988d102941735')]",55.60319257905524,37.528975323372975,ул. Тарусская 18,304,Ясенево,Yoga Studio,4bf58dd8d48988d102941735
"55.60086174357737,37.53152247537872",55.60086174357737,37.531522475378715,4f71bfb8e4b04c3d16a11d52,"ГУП ""Час Спорта""","[('Gym', '4bf58dd8d48988d176941735')]",55.601782125273274,37.53621158326651,"ул. Паустовского, 4А, 117463",312,Ясенево,Gym,4bf58dd8d48988d176941735
"55.59745111671711,37.549110825857404",55.59745111671711,37.549110825857404,4feedb1ae4b0967097ea274e,Спортивная площадка,"[('Gym', '4bf58dd8d48988d176941735')]",55.59770600539632,37.549704804396974,усадьба Ясенево,46,Ясенево,Gym,4bf58dd8d48988d176941735
"55.58549514653428,37.6106403605226",55.58549514653428,37.6106403605226,4f0e00dee4b03544980e617b,Центр Физической Культуры И Спорта,"[('Gym', '4bf58dd8d48988d176941735')]",55.58786452086832,37.61287723093038,"Дорожная ул., 44",298,Чертаново Южное,Gym,4bf58dd8d48988d176941735
"55.58549514653428,37.6106403605226",55.58549514653428,37.6106403605226,4ed3b009f5b9832addfa8257,ФОК ул. Дорожная,"[('Gym', '4bf58dd8d48988d176941735')]",55.58781033498804,37.61295602000617,Россия,296,Чертаново Южное,Gym,4bf58dd8d48988d176941735
"55.57865006403105,37.645779339208616",55.578650064031045,37.645779339208616,4fb7ce6b0cd6ea3ca12679aa,"Фитнесс-клуб ""Идеал""","[('Gym', '4bf58dd8d48988d176941735')]",55.58133272506679,37.6485278516824,Булатниковская ул.,345,Бирюлёво Западное,Gym,4bf58dd8d48988d176941735
"55.590660141081145,37.60886162906513",55.590660141081145,37.60886162906513,516f841ae4b04eccd356cd72,fitcurves,"[('Gym / Fitness Center', '4bf58dd8d48988d175941735')]",55.59245497158322,37.61343502999778,Россия,350,Чертаново Южное,Gym / Fitness Center,4bf58dd8d48988d175941735
"55.58038908626796,37.66157203428298",55.58038908626796,37.661572034282976,58332a397ff1e43c193edd56,Alex Fitness,"[('Gym / Fitness Center', '4bf58dd8d48988d175941735')]",55.57872872493286,37.66538004993381,"Михневская,4",302,Бирюлёво Восточное,Gym / Fitness Center,4bf58dd8d48988d175941735
"55.618005233114125,37.49274367712048",55.618005233114125,37.49274367712047,4d00a59f0457b1f720523278,"Бассейн ""Солнечный""","[('Gym Pool', '4bf58dd8d48988d105941735')]",55.61838221709111,37.49288103907024,"Теплый стан, 9к9 (Теплый стан, 9к3)",42,Тёплый Стан,Gym Pool,4bf58dd8d48988d105941735
"55.61630265567984,37.50154463184656",55.616302655679846,37.50154463184656,510e4790e4b0809a89f627d6,Спортленд,"[('Gym', '4bf58dd8d48988d176941735')]",55.61597778916147,37.505851942567574,Россия,273,Ясенево,Gym,4bf58dd8d48988d176941735
"55.61459948090935,37.51034464477349",55.61459948090935,37.51034464477349,4d8a44fd1508a143bf1d211e,Спортлэнд,"[('Gym / Fitness Center', '4bf58dd8d48988d175941735')]",55.61474649402648,37.51404545424925,"Новоясеневский проспект, д. 3А, стр.1",233,Ясенево,Gym / Fitness Center,4bf58dd8d48988d175941735
"55.60948637404546,37.53673903083919",55.60948637404546,37.536739030839186,58a1ddeaa19e9063d2d95233,Encore Fitness,"[('Gym / Fitness Center', '4bf58dd8d48988d175941735')]",55.60907878677347,37.535668751366956,"Новоясеневский проезд, 9, 117588",81,Ясенево,Gym / Fitness Center,4bf58dd8d48988d175941735
"55.60948637404546,37.53673903083919",55.60948637404546,37.536739030839186,50a110c8e4b0ab1754e3471c,"Тренажерный зал ""Обыкновенное Чудо""","[('Gym', '4bf58dd8d48988d176941735')]",55.61026264704329,37.536388389529364,Россия,89,Ясенево,Gym,4bf58dd8d48988d176941735
"55.607780811395074,37.545535274650376",55.607780811395074,37.545535274650376,51256613e4b0b833e918356f,Body Rock,"[('Gym', '4bf58dd8d48988d176941735')]",55.6088742804224,37.54688336983752,Litovskiy Bulevar 15/1,148,Ясенево,Gym,4bf58dd8d48988d176941735
"55.60095259622315,37.58071082040804",55.600952596223145,37.58071082040804,512d00e3e4b06556ba2ad473,ParisLife,"[('Gym / Fitness Center', '4bf58dd8d48988d175941735')]",55.59885749087935,37.58426833947328,"Чертановская, 30/7",323,Чертаново Южное,Gym / Fitness Center,4bf58dd8d48988d175941735
"55.59753491194768,37.598292932923954",55.597534911947676,37.598292932923954,54df4b72498e81ce00aee0a2,Paris Life,"[('Gym / Fitness Center', '4bf58dd8d48988d175941735')]",55.6006392468544,37.59864749627295,"ул. Кировоградская, д. 23а",346,Чертаново Южное,Gym / Fitness Center,4bf58dd8d48988d175941735
"55.5855542593884,37.659800583880156",55.5855542593884,37.659800583880156,4d819d0e21c0b60cf1cfdd6f,"Школа дзюдо ""Юность Москвы""","[('Martial Arts Dojo', '4bf58dd8d48988d101941735')]",55.58551271000664,37.66121509626587,"Михневская ул., 5К1, 115547",89,Бирюлёво Восточное,Martial Arts Dojo,4bf58dd8d48988d101941735
"55.61294571893388,37.543747008100844",55.61294571893389,37.54374700810085,51320d0fe4b0d576c02e80af,"СК ""Атлант""","[('Martial Arts Dojo', '4bf58dd8d48988d101941735')]",55.613300294007175,37.54152000821996,Литовский Пр. 9с2,145,Ясенево,Martial Arts Dojo,4bf58dd8d48988d101941735
"55.61294571893388,37.543747008100844",55.61294571893389,37.54374700810085,5051de3ee4b011f3a468bd82,"МУ ЦСиД ""Атлант""","[('Martial Arts Dojo', '4bf58dd8d48988d101941735')]",55.61332264804292,37.54219710453125,"Литовский б-р, д.11, к.2 (ул.Айвазовского)",106,Ясенево,Martial Arts Dojo,4bf58dd8d48988d101941735
"55.60611760065182,37.578927633298406",55.606117600651814,37.578927633298406,4f4b8532e4b0bd57acefa01d,"ФОК ""Красный Маяк"" МГФСО","[('Gym', '4bf58dd8d48988d176941735')]",55.606378694710905,37.58108983608283,"Ул. Красного Маяка, д.28, к.1",139,Чертаново Центральное,Gym,4bf58dd8d48988d176941735
"55.602699963950286,37.596512284115605",55.60269996395029,37.59651228411561,5194fb96498ec41a4d1b450d,Fitsolution,"[('Gym', '4bf58dd8d48988d176941735')]",55.60080020426318,37.59879880657881,"Кировоградская ул., 23а",255,Чертаново Южное,Gym,4bf58dd8d48988d176941735
"55.602699963950286,37.596512284115605",55.60269996395029,37.59651228411561,4fb521afe4b0bcda5bc59773,"НОУ ДЮСШ ""Школа Бокса им. Ю.В. Александрова""","[('Boxing Gym', '52f2ab2ebcbc57f1066b8b47')]",55.60084632373965,37.59899033566493,"Кировоградская, д. 23, стр. 2.",258,Чертаново Южное,Boxing Gym,52f2ab2ebcbc57f1066b8b47
"55.600990251722855,37.605303193412134",55.60099025172286,37.605303193412134,4dcf810e52b1f8915bb24795,Учебно-спортивный центр,"[('Gym / Fitness Center', '4bf58dd8d48988d175941735')]",55.602173072472866,37.60346144644998,"Кировоградская ул., 21, корп. 1, 117519",175,Чертаново Южное,Gym / Fitness Center,4bf58dd8d48988d175941735
"55.600990251722855,37.605303193412134",55.60099025172286,37.605303193412134,5569beda498eb57d388a9e04,Inferno Fitness,"[('Gym', '4bf58dd8d48988d176941735')]",55.600865969514295,37.60919385248664,"Россошанский проезд,5",245,Чертаново Южное,Gym,4bf58dd8d48988d176941735
"55.58900559413235,37.66681310668298",55.589005594132345,37.66681310668298,4e2ea0e852b111a1e37acf86,"Спортзал ""Гвардеец""","[('Gym / Fitness Center', '4bf58dd8d48988d175941735')]",55.59027877372675,37.67023420777528,"ул. Ряжская, 13 стр. 1",257,Бирюлёво Восточное,Gym / Fitness Center,4bf58dd8d48988d175941735
"55.587291120238895,37.675596456050144",55.587291120238895,37.67559645605015,4cf3c87a6195721e90b74ec1,СДЮСШОР №47 ФОК «Южный»,"[('Gym / Fitness Center', '4bf58dd8d48988d175941735')]",55.58563386557528,37.674050331115716,"Лебедянская ул., 18, 115372",208,Бирюлёво Восточное,Gym / Fitness Center,4bf58dd8d48988d175941735
"55.63173804862858,37.47154173855907",55.63173804862858,37.47154173855907,5400319c498e1c9ace6278a5,Come On Gym,"[('Gym / Fitness Center', '4bf58dd8d48988d175941735')]",55.63034682877882,37.473862362527385,"ул. Академика Варги, 8, корп. 1",212,Тёплый Стан,Gym / Fitness Center,4bf58dd8d48988d175941735
"55.630036717567144,37.48034712093393",55.63003671756714,37.48034712093393,4cc7fde4303476b0d5a7e16b,Самбо-70,"[('Martial Arts Dojo', '4bf58dd8d48988d101941735')]",55.63245463055864,37.477521586497154,"ул. Академика Виноградова, 4Б, 117133",322,Тёплый Стан,Martial Arts Dojo,4bf58dd8d48988d101941735
"55.611282645401076,37.57714412034551",55.611282645401076,37.57714412034551,541732f5498edbe9415e7b38,Фитнес Парк,"[('Gym', '4bf58dd8d48988d176941735')]",55.611307411045644,37.57642271778987,Улица Красного Маяка 22 к 5,45,Чертаново Центральное,Gym,4bf58dd8d48988d176941735
"55.607865056380774,37.59473131031799",55.607865056380774,37.594731310318,4ee34c1ee30005f8b6b67ab0,Империя Фитнеса,"[('Gym', '4bf58dd8d48988d176941735')]",55.607609824390366,37.592599155272545,"ул. Чертановская, 45а к1",137,Чертаново Центральное,Gym,4bf58dd8d48988d176941735
"55.604445083304526,37.61231472279087",55.604445083304526,37.61231472279086,557c967b498efae71583da06,Фитнес клуб Инферно,"[('Gym', '4bf58dd8d48988d176941735')]",55.60482882250793,37.61132637387708,"Россошанский проезд, 3 (Дорожный 3-й проезд)",75,Чертаново Южное,Gym,4bf58dd8d48988d176941735
"55.6334996259726,37.487355008205185",55.633499625972604,37.48735500820519,5458a94d498e7dc78f396a15,Самбо-70: бассейн,"[('Gym Pool', '4bf58dd8d48988d105941735')]",55.632222617576105,37.48756897863853,Академика Виноградова 4Б,142,Тёплый Стан,Gym Pool,4bf58dd8d48988d105941735
"55.60961026335008,37.61053596287582",55.60961026335008,37.61053596287582,582ae225b148847dad257dd8,Raketa Fitness,"[('Gym / Fitness Center', '4bf58dd8d48988d175941735')]",55.61072269298985,37.60806877915977,"ТРЦ «Columbus» (ул. Красного Маяка, 2Б), 117519",198,Чертаново Центральное,Gym / Fitness Center,4bf58dd8d48988d175941735
"55.607899406544256,37.61932752125005",55.607899406544256,37.61932752125005,4ea6d52ee5fa0cc4c3d023b7,Территория фитнеса,"[('Gym / Fitness Center', '4bf58dd8d48988d175941735')]",55.60830586836813,37.61610656303756,"ул. Подольских Курсантов, 10",207,Чертаново Южное,Gym / Fitness Center,4bf58dd8d48988d175941735
"55.640366380894115,37.476751138123376",55.640366380894115,37.476751138123376,4f563d90e4b0d0433036094b,"Спорт Клуб ""Спутник""","[('Gym / Fitness Center', '4bf58dd8d48988d175941735')]",55.641967636612385,37.478111771675536,"Ленинский Проспект, д. 135, к. 2, 117513",197,Тёплый Стан,Gym / Fitness Center,4bf58dd8d48988d175941735
"55.6318510127373,37.52077664250498",55.63185101273729,37.52077664250498,4db3510643a1369cb5a113e7,Sparta,"[('Gym', '4bf58dd8d48988d176941735')]",55.631486054578104,37.52354505614401,"ул. Островитянова, 34, корп. 1, стр. 1",178,Коньково,Gym,4bf58dd8d48988d176941735
"55.6318510127373,37.52077664250498",55.63185101273729,37.52077664250498,4ec91ee693ad41338ec30251,Brutal Gym,"[('Gym', '4bf58dd8d48988d176941735')]",55.63176075931585,37.5240710824324,"Островитянова, 32, стр. 1",207,Коньково,Gym,4bf58dd8d48988d176941735
"55.61990440733587,37.58237272389992",55.619904407335866,37.58237272389992,4e807725b634c59a4b5b23b5,Теннисный Корт На Территории Школы № 25,"[('Gym', '4bf58dd8d48988d176941735')]",55.61764851982481,37.58499288798411,"Университетский, 7",300,Чертаново Центральное,Gym,4bf58dd8d48988d176941735
"55.61990440733587,37.58237272389992",55.619904407335866,37.58237272389992,4f5ef249e4b0912b83b188aa,Спортзал,"[('Gym', '4bf58dd8d48988d176941735')]",55.61769040028743,37.58567287559175,"Школа № 556 (Днепропетровская ул., 33а)",322,Чертаново Центральное,Gym,4bf58dd8d48988d176941735
"55.614775483889225,37.60875687844548",55.61477548388922,37.608756878445476,4de65edf7d8b53987c5f0e8a,Force Factory,"[('Gym / Fitness Center', '4bf58dd8d48988d175941735')]",55.612641834309606,37.61209872414185,"Варшавское ш., 129, корп. 2",317,Чертаново Центральное,Gym / Fitness Center,4bf58dd8d48988d175941735
"55.61306465052326,37.61754970642217",55.61306465052326,37.617549706422174,512def10e4b0011fa085b9c3,Спортзал МТС,"[('Gym / Fitness Center', '4bf58dd8d48988d175941735')]",55.61530681899164,37.61712469120839,"1-й Дорожный пр-д, 3а",251,Чертаново Центральное,Gym / Fitness Center,4bf58dd8d48988d175941735
"55.63872027490728,37.5101800323961",55.638720274907286,37.5101800323961,4e943c24f5b95fb5b08fc227,Самбо-70,"[('Martial Arts Dojo', '4bf58dd8d48988d101941735')]",55.64058370967353,37.51054402197481,"ул. Академика Арцимовича, 13, город Москва, 117437, город Москва",208,Коньково,Martial Arts Dojo,4bf58dd8d48988d101941735
"55.635311189118596,37.5277880641252",55.6353111891186,37.527788064125204,54468f86498e01e636407689,Energym Fitness Studio,"[('Gym', '4bf58dd8d48988d176941735')]",55.63535700723018,37.52653628813746,Профсоюзная 103,78,Коньково,Gym,4bf58dd8d48988d176941735
"55.623360576032034,37.5893864370871",55.62336057603203,37.5893864370871,4f81aea2e4b04cf789fc0269,Soul Rhyme - Bboying,"[('Gym', '4bf58dd8d48988d176941735')]",55.62084716841008,37.58953245073776,Россия,279,Чертаново Центральное,Gym,4bf58dd8d48988d176941735
"55.621650958618005,37.59818242583668",55.62165095861801,37.598182425836676,527630a611d289923ef45ecf,Fitness Club Plastiline,"[('Gym / Fitness Center', '4bf58dd8d48988d175941735')]",55.623288784668595,37.601761599328206,"7 Континент (ул. Днепропетровская, 4А)",289,Чертаново Северное,Gym / Fitness Center,4bf58dd8d48988d175941735
"55.59765376991052,37.72122692799895",55.59765376991053,37.721226927998956,4edcf116d3e346be37564e70,Фитнес Клуб Вымпел,"[('Gym / Fitness Center', '4bf58dd8d48988d175941735')]",55.59658991007165,37.72289678619024,"Каширское ш., 144, корп. 2",158,Орехово-Борисово Южное,Gym / Fitness Center,4bf58dd8d48988d175941735
"55.650696202878876,37.473153830812315",55.65069620287888,37.47315383081232,56f11557498edb0c042fb1fe,Wellness Slim Park,"[('Gym / Fitness Center', '4bf58dd8d48988d175941735')]",55.648577373429305,37.46932922391121,Академика Анохина 60,336,Тропарёво-Никулино,Gym / Fitness Center,4bf58dd8d48988d175941735
"55.648994376487416,37.481963364755806",55.648994376487416,37.48196336475581,4f2080ade4b0a02157467e48,СССР,"[('Gym / Fitness Center', '4bf58dd8d48988d175941735')]",55.65065754052618,37.482700899328506,"Ленинский просп., 158",190,Тропарёво-Никулино,Gym / Fitness Center,4bf58dd8d48988d175941735
"55.648994376487416,37.481963364755806",55.648994376487416,37.48196336475581,4d7f7df6dd4a6ea879887b25,Фитнес Клуб Спорт-лэнд,"[('Gym', '4bf58dd8d48988d176941735')]",55.65148098059237,37.48389287805673,Гостиница Салют,302,Тропарёво-Никулино,Gym,4bf58dd8d48988d176941735
"55.645588928782665,37.499579603388355",55.64558892878265,37.499579603388355,4c3366b87cc0c9b614baf19a,Гармония,"[('Gym Pool', '4bf58dd8d48988d105941735')]",55.646912977952326,37.49882884271669,"ул. Саморы Машела, 6, кор. 4, 117513, город Москва",154,Обручевский,Gym Pool,4bf58dd8d48988d105941735
"55.645588928782665,37.499579603388355",55.64558892878265,37.499579603388355,51b74e59498e156dd2704f1e,Power Style,"[('Gym', '4bf58dd8d48988d176941735')]",55.64670536796047,37.50039971716881,"Ул. Островитянова, д. 6",134,Обручевский,Gym,4bf58dd8d48988d176941735
"55.64388530776269,37.508386307691666",55.64388530776269,37.50838630769167,4e76ec6f1f6e072f145299f6,Fitness Time,"[('Gym / Fitness Center', '4bf58dd8d48988d175941735')]",55.64353058053568,37.51178030550722,город Москва,216,Коньково,Gym / Fitness Center,4bf58dd8d48988d175941735
"55.64388530776269,37.508386307691666",55.64388530776269,37.50838630769167,4cec2053595cb1f740f3dc14,Союз Спорт,"[('Gym / Fitness Center', '4bf58dd8d48988d175941735')]",55.64254378175244,37.506134515777866,"ул., Академика Волгина, 33А, город Москва",205,Коньково,Gym / Fitness Center,4bf58dd8d48988d175941735
"55.64388530776269,37.508386307691666",55.64388530776269,37.50838630769167,4e5bde80d4c0ba8c11bd71eb,Фитнес Тайм,"[('Gym / Fitness Center', '4bf58dd8d48988d175941735')]",55.643438837333015,37.51110868108385,"Арцимовича, 8",178,Коньково,Gym / Fitness Center,4bf58dd8d48988d175941735
"55.64047627212097,37.52599688530939",55.64047627212097,37.52599688530939,5ae35f34916bc1002c82b1b5,Gym-Gym,"[('Gym', '4bf58dd8d48988d176941735')]",55.64174242685663,37.52462300086192,117279,165,Коньково,Gym,4bf58dd8d48988d176941735
"55.64047627212097,37.52599688530939",55.64047627212097,37.52599688530939,4ec3d7b6f5b9f024dff367b0,Спортклуб Гигант,"[('Gym', '4bf58dd8d48988d176941735')]",55.642523514374936,37.528076157244,"Миклухо-маклая Д.55, город Москва",262,Коньково,Gym,4bf58dd8d48988d176941735
"55.64047627212097,37.52599688530939",55.64047627212097,37.52599688530939,50eb81c7e4b03aa7e28d02fd,Силовой тренинг в Хрустальном,"[('Gym', '4bf58dd8d48988d176941735')]",55.63783146987203,37.52440452575684,ул. Профсоюзная 97 корп.1,310,Коньково,Gym,4bf58dd8d48988d176941735
"55.63877085779269,37.53480075823923",55.63877085779269,37.53480075823923,4fa4342ee4b0cbe2df19870a,Йога-станция Агапкин,"[('Yoga Studio', '4bf58dd8d48988d102941735')]",55.63950582625017,37.532147023913225,"ул. Миклухо-Маклая, д.34",185,Коньково,Yoga Studio,4bf58dd8d48988d102941735
"55.63877085779269,37.53480075823923",55.63877085779269,37.53480075823923,55d776ce498e0297e233364b,Rocky Boxing Club,"[('Gym / Fitness Center', '4bf58dd8d48988d175941735')]",55.63920996368768,37.531985758709155,Миклухо-маклая 34,183,Коньково,Gym / Fitness Center,4bf58dd8d48988d175941735
"55.62510604636544,37.60519773527873",55.62510604636543,37.60519773527873,4f4cc616e4b0accb03b2870c,Качалочка,"[('Gym', '4bf58dd8d48988d176941735')]",55.62678779939585,37.60666161064393,Россия,208,Чертаново Северное,Gym,4bf58dd8d48988d176941735
"55.621683877560216,37.62278752631176",55.621683877560216,37.62278752631176,4fa10b10e4b0b6a5a207eb73,Спринт,"[('Gym / Fitness Center', '4bf58dd8d48988d175941735')]",55.62221578977691,37.62168712379438,"Варшавское ш., 125ж, корп. 5, 117587",91,Чертаново Северное,Gym / Fitness Center,4bf58dd8d48988d175941735
"55.60453729663879,37.71067968611796",55.60453729663878,37.710679686117956,4ef5cb0e6da1f7b65fa5dab2,Европа Фитнес,"[('Gym / Fitness Center', '4bf58dd8d48988d175941735')]",55.60523539509568,37.712616077059046,"Домодедовская ул., 28",144,Орехово-Борисово Южное,Gym / Fitness Center,4bf58dd8d48988d175941735
"55.60453729663879,37.71067968611796",55.60453729663878,37.710679686117956,4fed50eee4b0c594c1f78da4,Клуб Боевых Искусств РОДЪ,"[('Martial Arts Dojo', '4bf58dd8d48988d101941735')]",55.603104282017654,37.71304932170901,Летниковская 6а,218,Орехово-Борисово Южное,Martial Arts Dojo,4bf58dd8d48988d101941735
"55.60110084131362,37.728246748429",55.60110084131362,37.728246748429,4de5043b7d8b2547eb4008e6,Фитнес Профи,"[('Gym / Fitness Center', '4bf58dd8d48988d175941735')]",55.598571611000565,37.72695322422652,На терр. 16 автобусного парка. Каширское шоссе,293,Орехово-Борисово Южное,Gym / Fitness Center,4bf58dd8d48988d175941735
"55.655861173315465,37.47135467998624",55.65586117331546,37.47135467998624,502d108ee4b0b025935f5df2,Point Fitness,"[('Gym / Fitness Center', '4bf58dd8d48988d175941735')]",55.65538218290388,37.474252199055314,"Пр. Вернадского, 92 (ЖК Корона)",189,Тропарёво-Никулино,Gym / Fitness Center,4bf58dd8d48988d175941735
"55.65415937270706,37.4801654883651",55.65415937270706,37.4801654883651,4f9e7c5de4b03d83ee33039e,Alex Fitness,"[('Gym / Fitness Center', '4bf58dd8d48988d175941735')]",55.654824561987546,37.48511359630761,"ул. 26 Бакинских Комиссаров, 7, корп. 6",319,Тропарёво-Никулино,Gym / Fitness Center,4bf58dd8d48988d175941735
"55.645641395070534,37.52420537755476",55.645641395070534,37.52420537755476,5319c79a498e100c15d21ead,Body Ideal,"[('Gym / Fitness Center', '4bf58dd8d48988d175941735')]",55.646065819599244,37.520893329584105,Миклухо-Маклая 37,213,Коньково,Gym / Fitness Center,4bf58dd8d48988d175941735
"55.645641395070534,37.52420537755476",55.645641395070534,37.52420537755476,4e9941227ee571e1ee831ff3,Балет,"[('Gym / Fitness Center', '4bf58dd8d48988d175941735')]",55.647522077792395,37.52860358361527,"Профсюзная, 96",346,Коньково,Gym / Fitness Center,4bf58dd8d48988d175941735
"55.64393600565141,37.53301052350287",55.643936005651405,37.53301052350287,4faf7b39e4b04792c3cb46bf,Бассейн СК Металлург,"[('Gym Pool', '4bf58dd8d48988d105941735')]",55.64412213265327,37.52986435827727,"Профсоюзная ул., д.83Б",198,Коньково,Gym Pool,4bf58dd8d48988d105941735
"55.63369112422523,37.58582155983042",55.63369112422522,37.58582155983042,4f7b1ec5e4b0ddbcd4d2bc25,Air Fitness ❤,"[('Gym / Fitness Center', '4bf58dd8d48988d175941735')]",55.634262093788706,37.59011910621726,Россия,277,Чертаново Северное,Gym / Fitness Center,4bf58dd8d48988d175941735
"55.62856062553608,37.61221431551057",55.62856062553608,37.61221431551057,4c185879d4d9c928a563ef29,World Class LITE,"[('Gym / Fitness Center', '4bf58dd8d48988d175941735')]",55.62933103414901,37.61633867644771,"Варшавское шоссе, д.122 А, 117587",273,Чертаново Северное,Gym / Fitness Center,4bf58dd8d48988d175941735
"55.62856062553608,37.61221431551057",55.62856062553608,37.61221431551057,4f740881121d4e0eab5c26a9,Аква-зона,"[('Gym Pool', '4bf58dd8d48988d105941735')]",55.629520474021255,37.61634768591759,"World Class Lite (Варшавское ш., 122а)",280,Чертаново Северное,Gym Pool,4bf58dd8d48988d105941735
"55.61999787036246,37.65618331647582",55.61999787036246,37.65618331647582,50a2e07ae4b0cc03702d878c,Подвал,"[('Gym', '4bf58dd8d48988d176941735')]",55.62179203729214,37.657472271190535,Севанская,215,Царицыно,Gym,4bf58dd8d48988d176941735
"55.61999787036246,37.65618331647582",55.61999787036246,37.65618331647582,51b45bb3498e0d22a64db75f,Стадион школы 868,"[('Track', '4bf58dd8d48988d106941735')]",55.62175908172157,37.65297927102458,Россия,281,Царицыно,Track,4bf58dd8d48988d106941735
"55.611420226090964,37.70012864043968",55.611420226090964,37.70012864043968,4e9883f42c5b827059eec59a,Фитнес-клуб Фитпрана,"[('Gym', '4bf58dd8d48988d176941735')]",55.61063641823318,37.69947408730543,"Шипиловский проезд 43 корп.5, город Москва",96,Орехово-Борисово Северное,Gym,4bf58dd8d48988d176941735
"55.60454740288581,37.73526783631366",55.60454740288581,37.73526783631366,5248f9a811d200b0046b73e9,СпортЛэнд,"[('Gym', '4bf58dd8d48988d176941735')]",55.60407479241054,37.73576653690079,"Ясеневая ул., 26 (Елецкая ул.), 115583",61,Орехово-Борисово Южное,Gym,4bf58dd8d48988d176941735
"55.60454740288581,37.73526783631366",55.60454740288581,37.73526783631366,521af30e11d27fbcf2b1ae85,Sportland,"[('Gym', '4bf58dd8d48988d176941735')]",55.60420454017692,37.73554653325686,"Ясеневая ул., 26",41,Орехово-Борисово Южное,Gym,4bf58dd8d48988d176941735
"55.66102618335352,37.46955519745537",55.66102618335352,37.46955519745537,4f6602a2e4b03c270b363134,"ФОК ""Семья""","[('Gym', '4bf58dd8d48988d176941735')]",55.66326131211081,37.4704953994396,"ул. Покрышкина, 3, корп. 3, 119602",255,Тропарёво-Никулино,Gym,4bf58dd8d48988d176941735
"55.65762203516365,37.487178420449844",55.65762203516365,37.487178420449844,58524264297c16529d7b63c1,"Центр единоборств ""Белый Лотос""","[('Martial Arts Dojo', '4bf58dd8d48988d101941735')]",55.658874184843036,37.487430352886456,26 Бакинских комиссаров,140,Тропарёво-Никулино,Martial Arts Dojo,4bf58dd8d48988d101941735
"55.65762203516365,37.487178420449844",55.65762203516365,37.487178420449844,4c978a38533aa09386d6da45,Федерация йоги,"[('Yoga Studio', '4bf58dd8d48988d102941735')]",55.66041816831329,37.489277914762894,"ул. 26 Бакинских Комиссаров, 12, корп. 2, 119526",338,Тропарёво-Никулино,Yoga Studio,4bf58dd8d48988d102941735
"55.6559190632439,37.495988616515326",55.65591906324389,37.495988616515326,4bd8749835aad13a99eb90f3,Фитнес-мания,"[('Gym / Fitness Center', '4bf58dd8d48988d175941735')]",55.65778675157161,37.49839782714843,"Ленинский просп., 146, 119526",257,Тропарёво-Никулино,Gym / Fitness Center,4bf58dd8d48988d175941735
"55.6559190632439,37.495988616515326",55.65591906324389,37.495988616515326,4f8980f7e4b002b90b467b47,Спортзал,"[('Gym', '4bf58dd8d48988d176941735')]",55.65603725114225,37.498390027328455,БЦ «Парк плейс»,151,Обручевский,Gym,4bf58dd8d48988d176941735
"55.6559190632439,37.495988616515326",55.65591906324389,37.495988616515326,4e1ad7f9b0fb8567c682a29c,Бассейн (Фитнес Мания),"[('Gym Pool', '4bf58dd8d48988d105941735')]",55.65789502995906,37.498763965895954,Ленинский пр. 146,280,Тропарёво-Никулино,Gym Pool,4bf58dd8d48988d105941735
"55.64739523126742,37.54002543481061",55.647395231267424,37.54002543481061,55deafcb498e1e9478895cf2,Bikram Hot Yoga Moscow South-West,"[('Yoga Studio', '4bf58dd8d48988d102941735')]",55.647605747696524,37.540578264699796,"ул. Бутлерова 17б, 117342",41,Коньково,Yoga Studio,4bf58dd8d48988d102941735
"55.637146913046635,37.59283843492852",55.637146913046635,37.592838434928524,51dbc138498ed4bfbd07c20b,Nice Fitness,"[('Gym / Fitness Center', '4bf58dd8d48988d175941735')]",55.63738755219777,37.59780046037741,"мкрн. Северное Чертаново, 1а, корп. 1, 111111",312,Чертаново Северное,Gym / Fitness Center,4bf58dd8d48988d175941735
"55.637146913046635,37.59283843492852",55.637146913046635,37.592838434928524,4f959127e4b0cd2d55214759,Бассейн СК Чертаново,"[('Gym Pool', '4bf58dd8d48988d105941735')]",55.63629523007643,37.59586151317895,Россия,212,Чертаново Северное,Gym Pool,4bf58dd8d48988d105941735
"55.633726031496614,37.61043520243059",55.63372603149661,37.610435202430594,52e6752b11d2a4fa7556926c,"спортклуб ""Персей""","[('Gym / Fitness Center', '4bf58dd8d48988d175941735')]",55.63589514130211,37.609412403364814,"Сумской проезд, 6А (Сумской проезд), 117208",249,Чертаново Северное,Gym / Fitness Center,4bf58dd8d48988d175941735
"55.633726031496614,37.61043520243059",55.63372603149661,37.610435202430594,4eef3eaf775b3c580f7aa918,Бассейн,"[('Gym Pool', '4bf58dd8d48988d105941735')]",55.635177146121556,37.612274951655934,"СК «Панджшер» (Сумской пр., 8, корп. 3), 115477",198,Чертаново Северное,Gym Pool,4bf58dd8d48988d105941735
"55.632014695981226,37.619232166722426",55.63201469598122,37.61923216672242,4e0a0ef1483b98d417224456,Bikram Yoga Varshavka,"[('Yoga Studio', '4bf58dd8d48988d102941735')]",55.631095010025255,37.61767032103243,"Варшавское ш., 118, корп. 1 (БЦ Варшавка-SKY), 117587",141,Чертаново Северное,Yoga Studio,4bf58dd8d48988d102941735
"55.632014695981226,37.619232166722426",55.63201469598122,37.61923216672242,4d8e2b9fc1b1721e1fda2946,Московский центр боевых искусств,"[('Martial Arts Dojo', '4bf58dd8d48988d101941735')]",55.63201516438407,37.61832618469792,"Варшавское ш., 118, корп. 1, 117587",56,Чертаново Северное,Martial Arts Dojo,4bf58dd8d48988d101941735
"55.61486856873978,37.70714971756347",55.61486856873978,37.70714971756347,513b5809e4b06910014470e1,Школьный стадион,"[('Track', '4bf58dd8d48988d106941735')]",55.61699345838464,37.709312360413634,"Орехово-Борисово Северное, школа №420, 115551",272,Орехово-Борисово Северное,Track,4bf58dd8d48988d106941735
"55.60971312476687,37.733506496605294",55.60971312476686,37.733506496605294,4e7c67478998832e2f5fd1d7,ФОК «Русь»,"[('Gym / Fitness Center', '4bf58dd8d48988d175941735')]",55.60767223108356,37.73638276800235,"Елецкая улица, 17/3",290,Орехово-Борисово Южное,Gym / Fitness Center,4bf58dd8d48988d175941735
"55.60799345447861,37.7422901918404",55.60799345447861,37.742290191840404,50c1f6f5e4b0e64f1d2a3b40,Russian Kobudo Federation (Всероссийская Федерация Кобудо / Russian Kobudo Federation),"[('Martial Arts Dojo', '4bf58dd8d48988d101941735')]",55.60718896195196,37.73817801857168,"Воронежская улица, 34/6",273,Орехово-Борисово Южное,Martial Arts Dojo,4bf58dd8d48988d101941735
"55.60627318995396,37.75107293787352",55.60627318995396,37.75107293787352,4f3424a6e4b04ffdc5bfec03,SportLand (СпортЛэнд),"[('Gym / Fitness Center', '4bf58dd8d48988d175941735')]",55.60834382387978,37.75514718663437,"Гурьевский пр., 25, корп. 1, 115597",344,Орехово-Борисово Южное,Gym / Fitness Center,4bf58dd8d48988d175941735
"55.67129288538263,37.441309646979875",55.671292885382634,37.44130964697988,5255126711d20d016ce5ae2e,УГУАНЬ ИЛИЦЮАНЬ.,"[('Martial Arts Dojo', '4bf58dd8d48988d101941735')]",55.6740703384347,37.442084638876075,Россия,312,Очаково-Матвеевское,Martial Arts Dojo,4bf58dd8d48988d101941735
"55.67129288538263,37.441309646979875",55.671292885382634,37.44130964697988,4ffce45de4b0184d35962ef0,Reebok Crossfit Stolitsa,"[('Gym', '4bf58dd8d48988d176941735')]",55.67102223979558,37.43905221700066,Москва,144,Очаково-Матвеевское,Gym,4bf58dd8d48988d176941735
"55.66619123297209,37.46775538302627",55.666191232972096,37.46775538302627,4e2af3f218a80bb05853469d,Атланта,"[('Gym / Fitness Center', '4bf58dd8d48988d175941735')]",55.66526579314337,37.47025052608972,"ул. Покрышкина, 8с1, 119602",187,Тропарёво-Никулино,Gym / Fitness Center,4bf58dd8d48988d175941735
"55.66448948409254,37.47656874156364",55.66448948409254,37.47656874156364,4e678c887d8b084ac75fce59,Скалодром МГУТХТ,"[('Climbing Gym', '503289d391d4c4b30a586d6a')]",55.66279081069647,37.47918035735592,Проспект Вернадского 86,250,Тропарёво-Никулино,Climbing Gym,503289d391d4c4b30a586d6a
"55.6627871364195,37.48538115637256",55.662787136419496,37.48538115637256,59c4f9cea5a315336ab7f43f,Spirit Fitness,"[('Gym / Fitness Center', '4bf58dd8d48988d175941735')]",55.66281954845519,37.481496930131264,"ТРЦ Avenue SouthWest, 119571",243,Тропарёво-Никулино,Gym / Fitness Center,4bf58dd8d48988d175941735
"55.65426642128892,37.52942906773122",55.654266421288916,37.529429067731215,4fb282a8e4b0c2b5f4fd6c1b,"Спортивный клуб ""Ермак""","[('Gym', '4bf58dd8d48988d176941735')]",55.657347989337474,37.5296350944035,"ул. Обручева, 23, к. 3 (ул. Архитектора Власова)",343,Обручевский,Gym,4bf58dd8d48988d176941735
"55.65426642128892,37.52942906773122",55.654266421288916,37.529429067731215,4d31dafd9c2d59415e5936d8,Фитнес-центр «Остров»,"[('Gym / Fitness Center', '4bf58dd8d48988d175941735')]",55.65620585578078,37.52744997793665,"ул. Обручева, 30",249,Коньково,Gym / Fitness Center,4bf58dd8d48988d175941735
"55.64402183363188,37.582255378045325",55.64402183363189,37.58225537804533,4d3c52f684d46ea8bdf9fc5c,"Бассейн КСК ""Битца""","[('Gym Pool', '4bf58dd8d48988d105941735')]",55.64350357415752,37.58061455021324,"КСК ""Битца""",118,Чертаново Северное,Gym Pool,4bf58dd8d48988d105941735
"55.64060219326377,37.59985658190986",55.64060219326377,37.59985658190986,5a4be08e09e283441f033166,Spirit Fitness,"[('Gym / Fitness Center', '4bf58dd8d48988d175941735')]",55.64205548267461,37.603688856130255,"16А Балаклавский проспект (Чертановская ул.), 117452",290,Зюзино,Gym / Fitness Center,4bf58dd8d48988d175941735
"55.63718016594789,37.61745400010722",55.637180165947896,37.617454000107216,51f10129498e26c8ebda111c,The Moscow Centre of Martial Arts,"[('Martial Arts Dojo', '4bf58dd8d48988d101941735')]",55.63460141576231,37.619732250997664,Varshavskoe shosse 118/1,320,Чертаново Северное,Martial Arts Dojo,4bf58dd8d48988d101941735
"55.62861466248429,37.661430973317046",55.628614662484296,37.661430973317046,55f859e4498ea52d31452a5f,Dorfit,"[('Gym / Fitness Center', '4bf58dd8d48988d175941735')]",55.62897636976233,37.659111055235094,"Кавказский бульвар, 26",151,Царицыно,Gym / Fitness Center,4bf58dd8d48988d175941735
"55.618316401617975,37.71417206347344",55.618316401617975,37.71417206347344,5b1c14862aff3100399cbd46,World Class,"[('Gym / Fitness Center', '4bf58dd8d48988d175941735')]",55.62124772445834,37.71330893896037,"Каширское шоссе, д.61 cтр.2, 115563",330,Орехово-Борисово Северное,Gym / Fitness Center,4bf58dd8d48988d175941735
"55.618316401617975,37.71417206347344",55.618316401617975,37.71417206347344,5896d4a9af5c1416e00c1942,Aqua Юна Life,"[('Gym / Fitness Center', '4bf58dd8d48988d175941735')]",55.616634039302255,37.71579883163263,"Каширское шоссе д.61 корп. 3а, 115563",213,Орехово-Борисово Северное,Gym / Fitness Center,4bf58dd8d48988d175941735
"55.61659794206594,37.72295892519113",55.61659794206594,37.72295892519113,502128abe4b0db59a845f3d0,Running Track,"[('Track', '4bf58dd8d48988d106941735')]",55.614687164676866,37.72425854641051,Россия,227,Орехово-Борисово Северное,Track,4bf58dd8d48988d106941735
"55.61315923908135,37.740529801240356",55.613159239081355,37.740529801240356,4e9db1a5be7beb6feffec775,Yoga Dance Studio,"[('Yoga Studio', '4bf58dd8d48988d102941735')]",55.61437003880447,37.74388108045017,"Ореховый Бульвар, 45, к.1",250,Зябликово,Yoga Studio,4bf58dd8d48988d102941735
"55.669654599216415,37.47476987076625",55.66965459921642,37.47476987076625,527f4f2011d214914cda1e8b,"Спортивный Центр ""I-JUMP""","[('Gym / Fitness Center', '4bf58dd8d48988d175941735')]",55.667636655404785,37.47403958243042,"Ул. Академика Анохина, д.8, кор.1",229,Тропарёво-Никулино,Gym / Fitness Center,4bf58dd8d48988d175941735
"55.667952277343375,37.48358356106255",55.667952277343375,37.483583561062545,4f1ae0dde4b0889e04abcf1b,World Class,"[('Gym / Fitness Center', '4bf58dd8d48988d175941735')]",55.665873956710406,37.486649751663215,"проспект Вернадского, д.101, корп. 3, 119526",300,Тропарёво-Никулино,Gym / Fitness Center,4bf58dd8d48988d175941735
"55.662841719556006,37.51001896623048",55.662841719556006,37.510018966230476,54088d6a498e6df8ee7083cc,Verso Wellnes Deluxe,"[('Gym Pool', '4bf58dd8d48988d105941735')]",55.66104067139983,37.50959822317345,"Ленинский просп., 111, корп 1 (ул. Обручева)",202,Обручевский,Gym Pool,4bf58dd8d48988d105941735
"55.662841719556006,37.51001896623048",55.662841719556006,37.510018966230476,5adb3f4a9cadd94729020c72,World Class,"[('Gym / Fitness Center', '4bf58dd8d48988d175941735')]",55.66372488308838,37.51106810235085,"Ленинский проспект, д.109, 119421",118,Обручевский,Gym / Fitness Center,4bf58dd8d48988d175941735
"55.64576765632934,37.5980755463935",55.64576765632935,37.5980755463935,4d60ec63e4fe54811bfe859e,Кимберли,"[('Gym / Fitness Center', '4bf58dd8d48988d175941735')]",55.646669134299536,37.59710920562559,"Азовская ул., 24 (Черноморский бул.), 117303",117,Зюзино,Gym / Fitness Center,4bf58dd8d48988d175941735
"55.64576765632934,37.5980755463935",55.64576765632935,37.5980755463935,5a44ccf93149b94955cbf7d6,Фитнес Амазония,"[('Gym / Fitness Center', '4bf58dd8d48988d175941735')]",55.64785601680104,37.59608600923585,"улица Азовская, 24, Корп. 3, 117452",263,Зюзино,Gym / Fitness Center,4bf58dd8d48988d175941735
"55.64063379146617,37.62447406938213",55.64063379146617,37.62447406938213,505724bce4b0c21075bab2d3,Фитнес-клуб Академия Спорта,"[('Gym / Fitness Center', '4bf58dd8d48988d175941735')]",55.64034047497847,37.62152911752587,"ТЦ Аэробус (Варшавское ш., 95, корп.1)",187,Чертаново Северное,Gym / Fitness Center,4bf58dd8d48988d175941735
"55.633780288828824,37.65965883798621",55.633780288828824,37.659658837986214,52a42e3011d2fde0e7c8fd9a,L'Atletica,"[('Gym / Fitness Center', '4bf58dd8d48988d175941735')]",55.63376821718997,37.65759766388232,"Пролетарский просп., 20, 115477",129,Царицыно,Gym / Fitness Center,4bf58dd8d48988d175941735
"55.63206542317103,37.66845266064884",55.632065423171035,37.66845266064884,4e8dbf1093adeeb4cdb89974,Вымпел,"[('Gym', '4bf58dd8d48988d176941735')]",55.62999439365372,37.66754720150436,"Кавказский бул., 25",237,Царицыно,Gym,4bf58dd8d48988d176941735
"55.623482162254504,37.71240754757171",55.6234821622545,37.712407547571715,4c32090aa0ced13af170146e,Alfa Fitness (Альфа Фитнес),"[('Gym / Fitness Center', '4bf58dd8d48988d175941735')]",55.62462735773502,37.70983143942638,"Каширское ш., 80 (ул. Маршала Захарова)",206,Орехово-Борисово Северное,Gym / Fitness Center,4bf58dd8d48988d175941735
"55.61832506490661,37.73876909182543",55.61832506490661,37.738769091825425,4d578fb3afe4b60c895d4661,Спортлэнд,"[('Gym', '4bf58dd8d48988d176941735')]",55.61848953961513,37.734926497934325,"Ореховый пр-д., 35, корп. 2, 115573",242,Зябликово,Gym,4bf58dd8d48988d176941735
"55.61660484320867,37.7475543741317",55.61660484320868,37.7475543741317,531ab94d498e7d9468cf7322,Force Factory,"[('Gym / Fitness Center', '4bf58dd8d48988d175941735')]",55.6157088476231,37.7457093541956,"ул. Мусы Джалиля, 31, корп. 1",152,Зябликово,Gym / Fitness Center,4bf58dd8d48988d175941735
"55.67992304689085,37.44652010504329",55.67992304689085,37.446520105043284,53fdb6e6498ea15f71f2045f,Элис Фитнес,"[('Gym / Fitness Center', '4bf58dd8d48988d175941735')]",55.679643810681355,37.44738598343919,119361,62,Очаково-Матвеевское,Gym / Fitness Center,4bf58dd8d48988d175941735
"55.674819753933065,37.47297066811317",55.67481975393306,37.47297066811317,4eba1a2d5c5c0e067d328300,Олимпиец,"[('Gym', '4bf58dd8d48988d176941735')]",55.67503151035612,37.47673164830116,"ул. Коштоянца, 20",237,Тропарёво-Никулино,Gym,4bf58dd8d48988d176941735
"55.674819753933065,37.47297066811317",55.67481975393306,37.47297066811317,50a6523be4b017a2ec7787e3,Kristian Cestaro Brazillian Jiu Jitsu Academy,"[('Martial Arts Dojo', '4bf58dd8d48988d101941735')]",55.67550314359846,37.477274840643524,Коштаянца Д20/3,280,Тропарёво-Никулино,Martial Arts Dojo,4bf58dd8d48988d101941735
"55.662891109234224,37.53465559256409",55.66289110923422,37.53465559256409,4c14e7baa9c220a1f031589d,Wellness Park,"[('Gym / Fitness Center', '4bf58dd8d48988d175941735')]",55.66430626849279,37.53642632432754,"Воронцовские пруды, 3, 117530",192,Обручевский,Gym / Fitness Center,4bf58dd8d48988d175941735
"55.65947754031711,37.55227134961873",55.659477540317106,37.55227134961873,4fccebb9e4b01cbffc88ae3c,Газпром ФОК,"[('Gym', '4bf58dd8d48988d176941735')]",55.658879651741884,37.556657952911685,Наметкина 16,283,Черёмушки,Gym,4bf58dd8d48988d176941735
"55.65947754031711,37.55227134961873",55.659477540317106,37.55227134961873,4d54223a5b3f6dcb38e7dbcc,Газпром - Оздоровительный Центр,"[('Gym / Fitness Center', '4bf58dd8d48988d175941735')]",55.65814876546739,37.557063102722175,"Наметкина, 16",335,Черёмушки,Gym / Fitness Center,4bf58dd8d48988d175941735
"55.65947754031711,37.55227134961873",55.659477540317106,37.55227134961873,4eeec271b634f75444c4b6e3,Бассейн в газпроме,"[('Gym Pool', '4bf58dd8d48988d105941735')]",55.659007050309754,37.55280174328245,Наметкина 16,62,Черёмушки,Gym Pool,4bf58dd8d48988d105941735
"55.65264323050207,37.58749151096768",55.65264323050207,37.58749151096768,58ea8d77d4390771f079f0bd,Baza Fitness Club,"[('Gym / Fitness Center', '4bf58dd8d48988d175941735')]",55.654206997321864,37.59114917891619,"Малая Юшуньская 3, 117303",288,Зюзино,Gym / Fitness Center,4bf58dd8d48988d175941735
"55.65093315974343,37.59629418502939",55.65093315974343,37.59629418502939,4e149552ae60fe00dfe0731b,K-Gym,"[('Gym / Fitness Center', '4bf58dd8d48988d175941735')]",55.65360275305501,37.593589808878065,"Малая Юшуньская, д.1, корп.2, 117303, город Москва",342,Зюзино,Gym / Fitness Center,4bf58dd8d48988d175941735
"55.65093315974343,37.59629418502939",55.65093315974343,37.59629418502939,4f5ce92ae4b0695cbb7f734d,Астра Йога,"[('Yoga Studio', '4bf58dd8d48988d102941735')]",55.651655991207,37.59786202902793,"Азовская Улица, 24 к 2",127,Зюзино,Yoga Studio,4bf58dd8d48988d102941735
"55.64751122728999,37.61389669228481",55.64751122728999,37.61389669228481,531af3af498ed12bc477fb6c,ДА!ФИТНЕС,"[('Gym / Fitness Center', '4bf58dd8d48988d175941735')]",55.64997903483046,37.61384964431701,Артековская 5,274,Нагорный,Gym / Fitness Center,4bf58dd8d48988d175941735
"55.635515674327095,37.67547561857704",55.635515674327095,37.67547561857704,54966f2b498eeff65613cea4,Фитнес-центр Зазеркалье,"[('Gym / Fitness Center', '4bf58dd8d48988d175941735')]",55.63787718147568,37.678087025308116,Ул. Кантемировская д. 6 корп. 1,309,Москворечье-Сабурово,Gym / Fitness Center,4bf58dd8d48988d175941735
"55.62177073172884,37.745794614491516",55.62177073172884,37.74579461449152,501f7846e4b047a4fb170f6f,Olimpic Fitness / БК Спарта,"[('Gym / Fitness Center', '4bf58dd8d48988d175941735')]",55.62133214822716,37.74562678322544,"Шипиловская ул., 58/1, 115580",49,Зябликово,Gym / Fitness Center,4bf58dd8d48988d175941735
"55.683387690601684,37.45353581517248",55.683387690601684,37.45353581517248,516a711fe4b0184c2cc8d3ec,Йога Машенька,"[('Yoga Studio', '4bf58dd8d48988d102941735')]",55.681324395208044,37.45273573288724,Большая Очаковская 28,235,Очаково-Матвеевское,Yoga Studio,4bf58dd8d48988d102941735
"55.676579808916514,37.488802673900615",55.676579808916514,37.488802673900615,5640478bcd10033090d9bb24,Gym Fitness Studio,"[('Gym / Fitness Center', '4bf58dd8d48988d175941735')]",55.67545417634727,37.49136984496281,"Лобачевского, 74",204,Проспект Вернадского,Gym / Fitness Center,4bf58dd8d48988d175941735
"55.67487634078438,37.49761702700582",55.67487634078438,37.49761702700582,4c1ca0118b3aa593aa27995f,Gymnastika,"[('Gym / Fitness Center', '4bf58dd8d48988d175941735')]",55.673413902411525,37.501348385915186,"просп. Вернадского, 53",285,Проспект Вернадского,Gym / Fitness Center,4bf58dd8d48988d175941735
"55.67146760829525,37.51524289797043",55.67146760829525,37.51524289797043,4d87128bf1e56ea8e4e8a88a,Амрита,"[('Yoga Studio', '4bf58dd8d48988d102941735')]",55.67229650430119,37.51666556506436,"Удальцова 5/2, 119415",128,Проспект Вернадского,Yoga Studio,4bf58dd8d48988d102941735
"55.67146760829525,37.51524289797043",55.67146760829525,37.51524289797043,4e071d38ae60a90eabc6f361,Golden Glory,"[('Martial Arts Dojo', '4bf58dd8d48988d101941735')]",55.67388566342056,37.51417023457596,"ул. Удальцова, 6",277,Проспект Вернадского,Martial Arts Dojo,4bf58dd8d48988d101941735
"55.669762344232126,37.5240544154439",55.66976234423213,37.5240544154439,4fabc7cce4b006e8b373d82b,Eastetica,"[('Yoga Studio', '4bf58dd8d48988d102941735')]",55.66851835071273,37.52534122181589,"ул. Новаторов, 1",160,Обручевский,Yoga Studio,4bf58dd8d48988d102941735
"55.666350021203556,37.54167461340981",55.66635002120356,37.54167461340982,4cf3528d6195721ef2614cc1,World Class,"[('Gym / Fitness Center', '4bf58dd8d48988d175941735')]",55.66946,37.54227,"ул. Архитектора Власова, д.22, 117393",348,Обручевский,Gym / Fitness Center,4bf58dd8d48988d175941735
"55.66464296253211,37.55048329351752",55.66464296253211,37.55048329351752,4c00f6e79cf52d7f917e14e7,World Class,"[('Gym / Fitness Center', '4bf58dd8d48988d175941735')]",55.66386,37.54907,"улица Намёткина, д.6, стр. 1 (Профсоюзная ул.), 117420",124,Черёмушки,Gym / Fitness Center,4bf58dd8d48988d175941735
"55.64411166366708,37.656113598584724",55.644111663667076,37.65611359858472,5090052c498e5bcb6468e718,Тонус Клуб,"[('Gym / Fitness Center', '4bf58dd8d48988d175941735')]",55.644995804368925,37.65888450914558,"ул. Москворечье, 31",199,Москворечье-Сабурово,Gym / Fitness Center,4bf58dd8d48988d175941735
"55.64411166366708,37.656113598584724",55.644111663667076,37.65611359858472,4f78bf3be4b067aa30d12a38,Yoga INN,"[('Yoga Studio', '4bf58dd8d48988d102941735')]",55.644935474276295,37.659134523139564,"ул. Москворечье, 31",210,Москворечье-Сабурово,Yoga Studio,4bf58dd8d48988d102941735
"55.63724880825172,37.69129336571816",55.63724880825171,37.69129336571815,500e2d61e4b00e0640bd7ed2,Миллениум,"[('Gym / Fitness Center', '4bf58dd8d48988d175941735')]",55.63838686461318,37.692412370034546,"Каширское ш., 55а, 115211",144,Москворечье-Сабурово,Gym / Fitness Center,4bf58dd8d48988d175941735
"55.635531605146554,37.700085934926655",55.63553160514656,37.700085934926655,4e96baf09adf7f572e0a8e37,Сабуровец,"[('Gym', '4bf58dd8d48988d176941735')]",55.637664878693755,37.697646000765424,"Каширское шоссе, д. 57, корп 5, 115211",282,Москворечье-Сабурово,Gym,4bf58dd8d48988d176941735
"55.62693666148362,37.744034536088655",55.62693666148362,37.744034536088655,4cd117d53e63721ed2c8a1cc,Адреналин,"[('Gym', '4bf58dd8d48988d176941735')]",55.62924540951617,37.74162315006182,"ул. Мусы Джалиля, 4А",298,Зябликово,Gym,4bf58dd8d48988d176941735
"55.67833761067648,37.50463567383668",55.67833761067648,37.50463567383668,4d87930a9324236a4203f90e,МД-Фит,"[('Gym / Fitness Center', '4bf58dd8d48988d175941735')]",55.67763885606199,37.50969529151917,"просп. Вернадского, 37, корп. 2",326,Проспект Вернадского,Gym / Fitness Center,4bf58dd8d48988d175941735
"55.67663297048926,37.513449412543935",55.67663297048925,37.513449412543935,4d6bb6ed35c9a0930f6b47c7,Power Plate,"[('Gym / Fitness Center', '4bf58dd8d48988d175941735')]",55.67471702980359,37.51368003197868,"ул. Удальцова, 10",213,Проспект Вернадского,Gym / Fitness Center,4bf58dd8d48988d175941735
"55.66980842478502,37.548694909041096",55.669808424785025,37.548694909041096,4e19b45eaeb7eb0120d71bd9,"СК ""Черемушки”","[('Gym / Fitness Center', '4bf58dd8d48988d175941735')]",55.66862126925199,37.54761125717553,"Профсоюзная ул., 62 к5, 117393",148,Обручевский,Gym / Fitness Center,4bf58dd8d48988d175941735
"55.66468373542086,37.57511909477879",55.66468373542086,37.57511909477879,52032f6c498ec7172ecc05e7,World Class LITE,"[('Gym / Fitness Center', '4bf58dd8d48988d175941735')]",55.664182693035634,37.5770205689228,"Севастопольский проспект, д.28 Г, 117209",131,Черёмушки,Gym / Fitness Center,4bf58dd8d48988d175941735
"55.65955366753904,37.601534757645624",55.65955366753904,37.60153475764562,4f2e4c5de4b040ea0022a342,"Фитнес ""Феромон""","[('Gym / Fitness Center', '4bf58dd8d48988d175941735')]",55.65957020138985,37.60405352782778,"Азовская ул., 18",158,Зюзино,Gym / Fitness Center,4bf58dd8d48988d175941735
"55.640697466671135,37.69831918701728",55.64069746667114,37.69831918701728,5177f9f6e4b043f54059c899,Muscule Garage,"[('Gym / Fitness Center', '4bf58dd8d48988d175941735')]",55.641199,37.696976,Россия,101,Москворечье-Сабурово,Gym / Fitness Center,4bf58dd8d48988d175941735
"55.63897969033916,37.70711207740858",55.638979690339156,37.707112077408574,4fced950e4b0191229d8462b,Open Air Gym At Mar'insky Park,"[('Gym', '4bf58dd8d48988d176941735')]",55.64182876879265,37.70540393194798,Россия,334,Марьино,Gym,4bf58dd8d48988d176941735
"55.68520700305651,37.494024621211786",55.685207003056505,37.49402462121178,4c93322066dfef3bdb929b03,Swim & Gym,"[('Gym / Fitness Center', '4bf58dd8d48988d175941735')]",55.6835385960996,37.492860915463844,"ул. Удальцова, 40, 119454",199,Проспект Вернадского,Gym / Fitness Center,4bf58dd8d48988d175941735
"55.68520700305651,37.494024621211786",55.685207003056505,37.49402462121178,5256a0ce11d259eac99ab3b6,Москва-98 Художественная Гимнастика,"[('Gym', '4bf58dd8d48988d176941735')]",55.683388149661596,37.491777599743024,Россия,246,Проспект Вернадского,Gym,4bf58dd8d48988d176941735
"55.67838734675819,37.52928278894056",55.678387346758186,37.52928278894056,525d2c8c11d2642f2a644fc0,"Физкультурно - оздоровительный комплекс ""Надежда""","[('Gym / Fitness Center', '4bf58dd8d48988d175941735')]",55.68045893470807,37.52922790632214,"ул. Крупской д.1 к.1, 119261",230,Ломоносовский,Gym / Fitness Center,4bf58dd8d48988d175941735
"55.67668093608019,37.53809496569683",55.67668093608019,37.53809496569683,53ef6033498e8443c77011f8,iGym,"[('Gym / Fitness Center', '4bf58dd8d48988d175941735')]",55.67716379219418,37.53689659425427,"ул. Гарибальди, д. 7, 119313",92,Ломоносовский,Gym / Fitness Center,4bf58dd8d48988d175941735
"55.67326631982955,37.55571647965006",55.67326631982955,37.555716479650066,4cbdb8fc4495721e1e15617a,World Class Lady’s,"[('Gym / Fitness Center', '4bf58dd8d48988d175941735')]",55.672082709752,37.55937362495772,"Профсоюзная улица, д.31 корп. 5, 117418",264,Черёмушки,Gym / Fitness Center,4bf58dd8d48988d175941735
"55.666429911869216,37.59094814394202",55.66642991186922,37.59094814394202,5880af599e35d36c45055c91,U Fit,"[('Gym / Fitness Center', '4bf58dd8d48988d175941735')]",55.66876549766257,37.59103539500837,Москва,260,Котловка,Gym / Fitness Center,4bf58dd8d48988d175941735
"55.63210466923054,37.766878796464376",55.632104669230536,37.766878796464376,4e9fe5fa9adf2bdff86f2ca3,"Спорткомплекс ""Южный""","[('Gym', '4bf58dd8d48988d176941735')]",55.63185209182143,37.76246983173203,"Ключевая ул., 22/2",278,Братеево,Gym,4bf58dd8d48988d176941735
"55.69037239371047,37.49222792140212",55.69037239371047,37.49222792140212,4ee8bd8d6d8600ed2293e207,СПК РАМЕНКИ,"[('Gym / Fitness Center', '4bf58dd8d48988d175941735')]",55.69119128055649,37.492737321167155,"ул. Раменки, 19",96,Раменки,Gym / Fitness Center,4bf58dd8d48988d175941735
"55.68013946932105,37.54511715419437",55.68013946932105,37.54511715419437,52e4d2b811d28db90dc73a83,Soul La Grange,"[('Gym / Fitness Center', '4bf58dd8d48988d175941735')]",55.679681007636425,37.547062536430175,"Вавилова, д. 81, корп. 1",132,Ломоносовский,Gym / Fitness Center,4bf58dd8d48988d175941735
"55.68013946932105,37.54511715419437",55.68013946932105,37.54511715419437,561f6f45498efcc59e0c8741,"Фитнес-клуб ""Пингвин""","[('Gym / Fitness Center', '4bf58dd8d48988d175941735')]",55.679758491581275,37.547062975800465,"Ул. Вавилова, д.81",129,Ломоносовский,Gym / Fitness Center,4bf58dd8d48988d175941735
"55.67672370618807,37.56273932542874",55.67672370618807,37.562739325428744,4e5bb84262e1de72f70ee161,Фитнес Люди,"[('Gym / Fitness Center', '4bf58dd8d48988d175941735')]",55.67420132572792,37.561472976032796,"Профсоюзная ул., 25",291,Черёмушки,Gym / Fitness Center,4bf58dd8d48988d175941735
"55.67330555084879,37.58035770758412",55.67330555084879,37.58035770758412,5b0d95f8dff81500393b15bc,U Fit,"[('Gym / Fitness Center', '4bf58dd8d48988d175941735')]",55.67537491627929,37.580650066507104,117218,231,Котловка,Gym / Fitness Center,4bf58dd8d48988d175941735
"55.66646206826245,37.6155830985264",55.666462068262454,37.61558309852639,4cfc7c707945224b25998be7,Yoga  Practika,"[('Yoga Studio', '4bf58dd8d48988d102941735')]",55.66524009572088,37.614827845526825,"Симферопольский пр., 18б",144,Нагорный,Yoga Studio,4bf58dd8d48988d102941735
"55.63899268538171,37.75633279396975",55.63899268538171,37.75633279396975,4e6f934a483bd41a3dd4ae24,Фитнес Гуру,"[('Gym / Fitness Center', '4bf58dd8d48988d175941735')]",55.63895173835029,37.759172916412346,"ТЦ Браво (ул. Борисовские Пруды, 26, стр. 2), 115408",178,Братеево,Gym / Fitness Center,4bf58dd8d48988d175941735
"55.71593860474799,37.38453498108312",55.71593860474799,37.384534981083114,532d7c8b498e16982501a928,Фитнесс клуб С.С.С.Р,"[('Gym', '4bf58dd8d48988d176941735')]",55.71614204015617,37.38425504678004,"Можайское шоссе, Стр.166Б",28,Можайский,Gym,4bf58dd8d48988d176941735
"55.71593860474799,37.38453498108312",55.71593860474799,37.384534981083114,4f6448fbe4b0777dfc3387df,СК Лидер,"[('Martial Arts Dojo', '4bf58dd8d48988d101941735')]",55.71659967329099,37.38859166161557,"ул. Барвихинская, 8/2",264,Можайский,Martial Arts Dojo,4bf58dd8d48988d101941735
"55.68871837124976,37.525699272083436",55.68871837124976,37.52569927208344,5021370ae4b0a8e0cacdf5e0,L-class,"[('Gym', '4bf58dd8d48988d176941735')]",55.687732486923274,37.52657649934217,"Вернадского Пр-т, 13",122,Ломоносовский,Gym,4bf58dd8d48988d176941735
"55.68871837124976,37.525699272083436",55.68871837124976,37.52569927208344,4d96e45d2bd6f04d66d04150,Vital Practice,"[('Yoga Studio', '4bf58dd8d48988d102941735')]",55.68865034333208,37.53117261138353,"просп. Вернадского, 11/19 (ул. Строителей)",343,Ломоносовский,Yoga Studio,4bf58dd8d48988d102941735
"55.68871837124976,37.525699272083436",55.68871837124976,37.52569927208344,4fd0d266e4b007f808f90c1e,Фитнес,"[('Gym / Fitness Center', '4bf58dd8d48988d175941735')]",55.68740029805222,37.52709989605553,Проспект Вернадского 15,171,Ломоносовский,Gym / Fitness Center,4bf58dd8d48988d175941735
"55.685305051562445,37.54332778343966",55.68530505156245,37.54332778343966,4eae4fd229c2a9bb97fb27a4,"Фитнес-клуб ""Индиго""","[('Gym / Fitness Center', '4bf58dd8d48988d175941735')]",55.684437980749166,37.54534503297161,"ул. Ломоносовский просп., 7, корп. 5",159,Гагаринский,Gym / Fitness Center,4bf58dd8d48988d175941735
"55.66820256717997,37.63141348211929",55.66820256717997,37.631413482119285,52f8864a498ec482fc9fd889,СССР,"[('Gym / Fitness Center', '4bf58dd8d48988d175941735')]",55.67029821083976,37.63377525433608,"Хлебозаводский пр., 7, стр. 10",276,Нагатино-Садовники,Gym / Fitness Center,4bf58dd8d48988d175941735
"55.64760079243966,37.7369910310982",55.647600792439654,37.736991031098206,4d1cc975aff260fc77bc2934,Miss Fitness,"[('Gym / Fitness Center', '4bf58dd8d48988d175941735')]",55.64606388856174,37.7376315200105,"Новочеркасский бул., 44, 109144",175,Марьино,Gym / Fitness Center,4bf58dd8d48988d175941735
"55.64415882295123,37.75457397975025",55.64415882295123,37.754573979750255,4cdd7fd16ad1a093c2d7f756,Олимп,"[('Gym / Fitness Center', '4bf58dd8d48988d175941735')]",55.64635874972982,37.753548601259546,"Луговой пр-д, 12",253,Марьино,Gym / Fitness Center,4bf58dd8d48988d175941735
"55.717709683622566,37.40038359066084",55.71770968362257,37.400383590660844,509a2520e4b0ef44e52b58e1,спортивно досуговый центр гармония,"[('Martial Arts Dojo', '4bf58dd8d48988d101941735')]",55.7188106409161,37.400298386500076,Улица Толбухина 5к3,122,Можайский,Martial Arts Dojo,4bf58dd8d48988d101941735
"55.70921399197945,37.44452037420791",55.70921399197945,37.444520374207904,59089409c9f90767e748c3f9,СССР Фитнес Верейская Premium,"[('Gym / Fitness Center', '4bf58dd8d48988d175941735')]",55.70953123265296,37.44222453852628,"Верейская, д.29 стр 134, 121357",148,Можайский,Gym / Fitness Center,4bf58dd8d48988d175941735
"55.70581151250507,37.46216847237514",55.70581151250507,37.46216847237514,556ac9fc498e03302e2fc212,Strong,"[('Gym / Fitness Center', '4bf58dd8d48988d175941735')]",55.706844502066794,37.467160380365684,"Нежинская ул., 17, корп. 2",333,Очаково-Матвеевское,Gym / Fitness Center,4bf58dd8d48988d175941735
"55.69217760790934,37.53272302472693",55.69217760790934,37.53272302472693,4ba23d3ef964a5201be637e3,World Class,"[('Gym / Fitness Center', '4bf58dd8d48988d175941735')]",55.69168973701307,37.528299757387146,"ТРК «Капитолий» (просп. Вернадского, 6), 119311",282,Раменки,Gym / Fitness Center,4bf58dd8d48988d175941735
"55.690470673758334,37.54153808354095",55.69047067375835,37.54153808354096,4ec537439a522f580bbfa275,Plastiline,"[('Gym / Fitness Center', '4bf58dd8d48988d175941735')]",55.691061271577674,37.539242459104784,"Ломоносовский пр-т, 23",158,Гагаринский,Gym / Fitness Center,4bf58dd8d48988d175941735
"55.68534628006873,37.56797757504708",55.68534628006873,37.56797757504708,4ebe3061be7b04923bb0a1fb,Лотос,"[('Gym / Fitness Center', '4bf58dd8d48988d175941735')]",55.6835596265021,37.571835781670906,"ул. Кедрова, 14, корп. 1, 117218",313,Академический,Gym / Fitness Center,4bf58dd8d48988d175941735
"55.681927026384336,37.585599163349315",55.68192702638434,37.58559916334932,4c2894409fb5d13a83b69957,Dr. Loder,"[('Gym / Fitness Center', '4bf58dd8d48988d175941735')]",55.68492098334243,37.58594929501382,"ул. Дмитрия Ульянова, 31 (Новочерёмушкинская ул.)",334,Академический,Gym / Fitness Center,4bf58dd8d48988d175941735
"55.681927026384336,37.585599163349315",55.68192702638434,37.58559916334932,50719d4ce4b0c34b509a5f99,Бассейн,"[('Gym Pool', '4bf58dd8d48988d105941735')]",55.684990846026004,37.58595922736257,"Dr. Loder (ул. Дмитрия Ульянова, 31)",341,Академический,Gym Pool,4bf58dd8d48988d105941735
"55.67679366196683,37.61202443291519",55.676793661966826,37.612024432915184,54f6f67e498e82a66100dd80,Атмосфера,"[('Climbing Gym', '503289d391d4c4b30a586d6a')]",55.676019852481424,37.612619165127136,"Электролитный Проезд, 7б",93,Нагорный,Climbing Gym,503289d391d4c4b30a586d6a
"55.67679366196683,37.61202443291519",55.676793661966826,37.612024432915184,56912327498e33433cc4899f,Klokov & Baza Team,"[('Gym / Fitness Center', '4bf58dd8d48988d175941735')]",55.67501805978029,37.61588594011995,Москва,312,Нагорный,Gym / Fitness Center,4bf58dd8d48988d175941735
"55.67679366196683,37.61202443291519",55.676793661966826,37.612024432915184,5230281d11d284e539417e62,Молодежный Центр Котловка,"[('Gym / Fitness Center', '4bf58dd8d48988d175941735')]",55.676599284977605,37.60801486254954,"Севастопольский пр-т, д.51, 117209",252,Котловка,Gym / Fitness Center,4bf58dd8d48988d175941735
"55.675081345379525,37.62083095856869",55.67508134537953,37.62083095856869,54ccd5e5498e90135b5f9209,НебоТут,"[('Gymnastics Gym', '52f2ab2ebcbc57f1066b8b48')]",55.6749611423222,37.618396312842385,"Электролитный пр., 3, стр. 2, 115230",153,Нагорный,Gymnastics Gym,52f2ab2ebcbc57f1066b8b48
"55.675081345379525,37.62083095856869",55.67508134537953,37.62083095856869,4cdc3819d5495481626640b2,"Клуб КУДО ""Профессионал""","[('Martial Arts Dojo', '4bf58dd8d48988d101941735')]",55.673717316551546,37.62152060364033,"Электролитный пр., 3, к. 2",157,Нагорный,Martial Arts Dojo,4bf58dd8d48988d101941735
"55.673368431480434,37.629636535136385",55.67336843148043,37.62963653513639,4dce5aac45ddbe15f886411f,Club 18 fight & fitness,"[('Gym / Fitness Center', '4bf58dd8d48988d175941735')]",55.67416972067417,37.63263614409917,"1-й Нагатинский пр., 15",208,Нагатино-Садовники,Gym / Fitness Center,4bf58dd8d48988d175941735
"55.6596436347606,37.70004695775552",55.6596436347606,37.700046957755525,4dfe33ccb0fb709b61e2f287,Стадион Школы 493,"[('Track', '4bf58dd8d48988d106941735')]",55.6574111369603,37.69874409842676,4-я Курьяновская улица,261,Печатники,Track,4bf58dd8d48988d106941735
"55.65448699819496,37.72643518334081",55.65448699819496,37.72643518334081,541c519f498e35d26fda1fc1,Акробат,"[('Gymnastics Gym', '52f2ab2ebcbc57f1066b8b48')]",55.6554778859233,37.730998168265316,"ул. Перерва, 19, стр. 1",307,Марьино,Gymnastics Gym,52f2ab2ebcbc57f1066b8b48
"55.65276692806055,37.73522935606685",55.65276692806055,37.73522935606685,4e82b35677c8a556c7256f77,Maxima Fitnes,"[('Gym', '4bf58dd8d48988d176941735')]",55.6531004870705,37.73850732240607,"ул. Перерва, 50, корп. 1",209,Марьино,Gym,4bf58dd8d48988d176941735
"55.6510462625327,37.744022577244486",55.6510462625327,37.74402257724449,4e477763a809fb2fa3f9d686,Alex Fitness,"[('Gym / Fitness Center', '4bf58dd8d48988d175941735')]",55.64914255840618,37.745053530842405,"Люблинская ул., 169, корп. 2",221,Марьино,Gym / Fitness Center,4bf58dd8d48988d175941735
"55.6510462625327,37.744022577244486",55.6510462625327,37.74402257724449,50d6c5dae4b00d6422b920bb,Альфа-Будо,"[('Martial Arts Dojo', '4bf58dd8d48988d101941735')]",55.65387336715684,37.74449591799499,Люблинская,316,Марьино,Martial Arts Dojo,4bf58dd8d48988d101941735
"55.72287492716327,37.39857310045135",55.722874927163275,37.39857310045135,4cdfb7ebf8a4a143135be0bc,Зебра,"[('Gym / Fitness Center', '4bf58dd8d48988d175941735')]",55.72147051250649,37.40280253631305,"ул. Толбухина, 10, корп. 3, 121354",307,Можайский,Gym / Fitness Center,4bf58dd8d48988d175941735
"55.72117701748585,37.40740362703831",55.72117701748585,37.40740362703831,4d873a8640a7a35dec4f43be,"Центр Единоборств ""Крылья Советов""","[('Martial Arts Dojo', '4bf58dd8d48988d101941735')]",55.71954602893229,37.407529420466894,"Кубинка, 7",181,Можайский,Martial Arts Dojo,4bf58dd8d48988d101941735
"55.71947850681885,37.416233208938735",55.719478506818845,37.416233208938735,5328946b498e016da754f548,Fit-Studio,"[('Gym', '4bf58dd8d48988d176941735')]",55.72115549681671,37.415942295744784,"Улица Гришина, дом 5, 121354",187,Можайский,Gym,4bf58dd8d48988d176941735
"55.71947850681885,37.416233208938735",55.719478506818845,37.416233208938735,4ddbe7a7b0fb2604df743b85,Империя фитнеса,"[('Gym', '4bf58dd8d48988d176941735')]",55.72130834029557,37.41893887920807,Гришина,265,Можайский,Gym,4bf58dd8d48988d176941735
"55.7160796831038,37.43388953789787",55.7160796831038,37.43388953789787,506f10d2e4b0e15bc4022cb2,Спорт Спорт Спорт,"[('Gym', '4bf58dd8d48988d176941735')]",55.71784975963261,37.434500475157684,Россия,200,Можайский,Gym,4bf58dd8d48988d176941735
"55.70757211678522,37.47801381461612",55.70757211678522,37.47801381461612,5051db87e4b0f53cf08c9fca,Dancera,"[('Yoga Studio', '4bf58dd8d48988d102941735')]",55.70986385628912,37.47712900725717,Веерная 30 К.2,261,Очаково-Матвеевское,Yoga Studio,4bf58dd8d48988d102941735
"55.704164890532965,37.49565690294578",55.70416489053297,37.49565690294578,57ee6d72498e4bb1d8aee621,X-Fit,"[('Gym / Fitness Center', '4bf58dd8d48988d175941735')]",55.705352000000005,37.494777,"Мосфильмовская ул., 88, корп. 2, стр. 7",143,Раменки,Gym / Fitness Center,4bf58dd8d48988d175941735
"55.70075526620303,37.513296204742964",55.70075526620303,37.513296204742964,512d91cce4b08a085371579a,YP Studio (Студия Йоги и Пилатес),"[('Yoga Studio', '4bf58dd8d48988d102941735')]",55.70230787018085,37.51527371640782,Москва,212,Раменки,Yoga Studio,4bf58dd8d48988d102941735
"55.693928828019445,37.548563442552535",55.69392882801946,37.548563442552535,5416907e498e1a135bfbf091,Университет,"[('Gym / Fitness Center', '4bf58dd8d48988d175941735')]",55.69645788774376,37.549359840426824,Университетский Проспект Дом 9,285,Гагаринский,Gym / Fitness Center,4bf58dd8d48988d175941735
"55.693928828019445,37.548563442552535",55.69392882801946,37.548563442552535,4e634b28b0fb188e8e110271,Спортлэнд,"[('Gym / Fitness Center', '4bf58dd8d48988d175941735')]",55.69634730080015,37.549337217324116,"Университетский просп., 9",273,Гагаринский,Gym / Fitness Center,4bf58dd8d48988d175941735
"55.690512016521346,37.56619137547927",55.690512016521346,37.56619137547927,581ceaf0b293f757e173fb3c,Naused центр гимнастики и акробатики,"[('Gymnastics Gym', '52f2ab2ebcbc57f1066b8b48')]",55.691772,37.570251,Черёмушкий пр-д дом 5,290,Академический,Gymnastics Gym,52f2ab2ebcbc57f1066b8b48
"55.67853433625257,37.62785926311632",55.678534336252575,37.62785926311632,5209fb5d11d276ea334b85d6,X-Fit,"[('Gym / Fitness Center', '4bf58dd8d48988d175941735')]",55.67886081881465,37.63140109496368,"Newton Plaza (1-й Нагатинский пр., 10), 115533",225,Нагатино-Садовники,Gym / Fitness Center,4bf58dd8d48988d175941735
"55.67339208211205,37.65427411890836",55.673392082112045,37.654274118908354,4e84b221b634cb2d55cac0bb,Физкультурно Оздоровительный Центр ИПК Госслужбы,"[('Gym / Fitness Center', '4bf58dd8d48988d175941735')]",55.67495554464508,37.6502803275785,Москва,305,Нагатино-Садовники,Gym / Fitness Center,4bf58dd8d48988d175941735
"55.671676803467115,37.66307717091969",55.67167680346712,37.663077170919685,4e53586baeb74b745815956f,Фитнес ТАЙМ,"[('Gym', '4bf58dd8d48988d176941735')]",55.67310056167363,37.66414497661489,"Проспект Андропова, 37",172,Нагатинский Затон,Gym,4bf58dd8d48988d176941735
"55.65621246098447,37.7422618538556",55.65621246098447,37.7422618538556,5be01a7c2b9844002c6e2310,СпортЛэнд,"[('Gym / Fitness Center', '4bf58dd8d48988d175941735')]",55.65883,37.741654,"Люблинская ул., 153, 109382",293,Марьино,Gym / Fitness Center,4bf58dd8d48988d175941735
"55.65104695780418,37.768639619371314",55.65104695780418,37.768639619371314,588601a56d349d4a5efef6fa,Raketa Mari,"[('Gym / Fitness Center', '4bf58dd8d48988d175941735')]",55.64930890007224,37.77008436472853,"Поречная ул. 10, 109469",213,Марьино,Gym / Fitness Center,4bf58dd8d48988d175941735
"55.65104695780418,37.768639619371314",55.65104695780418,37.768639619371314,4c59a5276407d13a91b2b228,X-Fit,"[('Gym / Fitness Center', '4bf58dd8d48988d175941735')]",55.65223833896886,37.76729179279766,"Братиславская ул., 30",157,Марьино,Gym / Fitness Center,4bf58dd8d48988d175941735
"55.724643843882454,37.4144249440997",55.724643843882454,37.4144249440997,4de1e070d22d2a4ecdb957b3,X-Fit,"[('Gym / Fitness Center', '4bf58dd8d48988d175941735')]",55.72363885908271,37.411587770368904,"ул. Кутузова, 11, стр. 2",210,Можайский,Gym / Fitness Center,4bf58dd8d48988d175941735
"55.7144403272559,37.46739026587003",55.7144403272559,37.46739026587003,5c9ce94525fb7b002cb3f266,Let’s Do Pilates,"[('Pilates Studio', '5744ccdfe4b0c0459246b4b2')]",55.712467000000004,37.467433,119517,219,Фили-Давыдково,Pilates Studio,5744ccdfe4b0c0459246b4b2
"55.71103435262309,37.48503780489707",55.71103435262309,37.48503780489707,4f72974ee4b043e3bbbe0495,Всплеск,"[('Gym', '4bf58dd8d48988d176941735')]",55.71103912157442,37.486192680442144,Веерная 12/1,72,Очаково-Матвеевское,Gym,4bf58dd8d48988d176941735
"55.70592089244667,37.5115020128783",55.70592089244667,37.511502012878296,4dfd8df6e4cdbe059c3d2abd,Керала,"[('Yoga Studio', '4bf58dd8d48988d102941735')]",55.70427741270579,37.51342252319387,"Мичуринский просп., 3",219,Раменки,Yoga Studio,4bf58dd8d48988d102941735
"55.68883708840341,37.59965443848922",55.6888370884034,37.59965443848922,59ccfa462d2fd97cfde5c06a,Spirit Fitness,"[('Gym / Fitness Center', '4bf58dd8d48988d175941735')]",55.69027249843329,37.60136208249078,"ТРЦ «Рио» (Большая Черёмушкинская ул., 1), 117447",192,Котловка,Gym / Fitness Center,4bf58dd8d48988d175941735
"55.68370028147568,37.62608166586854",55.68370028147568,37.62608166586854,57c46af7498e099ad3608d29,CrossFit IDOL Nagatino,"[('Gym', '4bf58dd8d48988d176941735')]",55.68322137247803,37.63004559558569,Нагатинская,254,Нагатино-Садовники,Gym,4bf58dd8d48988d176941735
"55.68370028147568,37.62608166586854",55.68370028147568,37.62608166586854,51dd786a498ecb37f38576fe,Fight Club #1,"[('Martial Arts Dojo', '4bf58dd8d48988d101941735')]",55.68551318397295,37.62911772543765,Нагатинская наб. 2,277,Нагатино-Садовники,Martial Arts Dojo,4bf58dd8d48988d101941735
"55.68027275600065,37.643695069000536",55.680272756000655,37.64369506900053,50a63ee8e4b0c08636ba4cbf,Клуб единоборств Нагатино-Садовники,"[('Martial Arts Dojo', '4bf58dd8d48988d101941735')]",55.680933411796524,37.64309236498973,Россия,82,Нагатино-Садовники,Martial Arts Dojo,4bf58dd8d48988d101941735
"55.68027275600065,37.643695069000536",55.680272756000655,37.64369506900053,5b86a38eb399f7002c10eefa,Фитнес-клуб «Богатырь»,"[('Gym / Fitness Center', '4bf58dd8d48988d175941735')]",55.678362,37.644601,"2-ой Нагатинский пр-д, 16, 115487",220,Нагатино-Садовники,Gym / Fitness Center,4bf58dd8d48988d175941735
"55.6785580974487,37.652500345458286",55.6785580974487,37.652500345458286,508697fbe4b0b68d73538905,"СКБИ ""Варяг"" (Садовники)","[('Martial Arts Dojo', '4bf58dd8d48988d101941735')]",55.676189519079024,37.650794328395094,"Ул. Садовники, дом 4",284,Нагатино-Садовники,Martial Arts Dojo,4bf58dd8d48988d101941735
"55.673410540306065,37.6789104721161",55.67341054030607,37.6789104721161,52bef9a5498e8872303203a9,СпортЛэнд,"[('Gym / Fitness Center', '4bf58dd8d48988d175941735')]",55.675810895776884,37.6823056229312,"Кленовый бул., 23 (Коломенская ул.)",341,Нагатинский Затон,Gym / Fitness Center,4bf58dd8d48988d175941735
"55.659657483008054,37.74929562327034",55.659657483008054,37.74929562327034,4ca9c4bdb0b8236a2020c0e6,Zebra Fitness,"[('Gym / Fitness Center', '4bf58dd8d48988d175941735')]",55.65929024291602,37.74855810270286,"ТЦ «БУМ» (ул. Перерва, 43, корп. 1)",61,Марьино,Gym / Fitness Center,4bf58dd8d48988d175941735
"55.65793567004727,37.75808948331751",55.65793567004727,37.75808948331751,4f856221e4b0cd08a4857f81,"Центр йоги и массажа ""Vita""","[('Yoga Studio', '4bf58dd8d48988d102941735')]",55.656582362929875,37.760183590710795,"Братиславская ул., 18, корп. 1",199,Марьино,Yoga Studio,4bf58dd8d48988d102941735
"55.65793567004727,37.75808948331751",55.65793567004727,37.75808948331751,5346406c498ede3f6155aea7,Тонус Клуб (Фитнес для женщин),"[('Gym / Fitness Center', '4bf58dd8d48988d175941735')]",55.6583756378032,37.75977623584042,"ул. Братиславская, 18, к. 1",116,Марьино,Gym / Fitness Center,4bf58dd8d48988d175941735
"55.6562132618461,37.766882390771286",55.656213261846105,37.766882390771286,4f52406be4b006151458f45b,FRESH Fitness Club,"[('Gym', '4bf58dd8d48988d176941735')]",55.6557877382253,37.76220973301305,"Братиславская ул., 22",297,Марьино,Gym,4bf58dd8d48988d176941735
"55.65449025855241,37.775674345444045",55.65449025855241,37.775674345444045,5390aa9f498edf251ca5be4c,Workout площадка,"[('Outdoor Gym', '58daa1558bbb0b01f18ec203')]",55.65670355421359,37.77960681106229,Марьинский Парк,348,Марьино,Outdoor Gym,58daa1558bbb0b01f18ec203
"55.73150767635553,37.40378419960372",55.731507676355534,37.40378419960372,4e64cf1945ddda352a935b00,Gym,"[('Gym', '4bf58dd8d48988d176941735')]",55.733787613979864,37.40596521416007,город Москва,288,Кунцево,Gym,4bf58dd8d48988d176941735
"55.729809220076966,37.4126163434996",55.72980922007697,37.4126163434996,5832da7bfbe8ff7800619859,GYMS.MOSCOW,"[('Gym / Fitness Center', '4bf58dd8d48988d175941735')]",55.732351806209095,37.41243668372253,Ул. партизанская 10,283,Кунцево,Gym / Fitness Center,4bf58dd8d48988d175941735
"55.72300938507759,37.447935463579206",55.72300938507759,37.44793546357921,526293c1498ee0f09df80800,Lakshmi Studio,"[('Yoga Studio', '4bf58dd8d48988d102941735')]",55.72443682006764,37.44780992827524,"Можайское ш., 2",159,Можайский,Yoga Studio,4bf58dd8d48988d102941735
"55.72300938507759,37.447935463579206",55.72300938507759,37.44793546357921,4c445c33f0bdd13a276bc9cc,N-Ergo,"[('Gym / Fitness Center', '4bf58dd8d48988d175941735')]",55.725848700397094,37.44635694629022,"Можайское ш., 2 (Рублёвское ш.), 121374",331,Можайский,Gym / Fitness Center,4bf58dd8d48988d175941735
"55.72130792459164,37.45676287874663",55.721307924591635,37.45676287874663,51164763e4b03863bfe39083,спорткомплекс МЧС России,"[('Gym', '4bf58dd8d48988d176941735')]",55.72211750858487,37.459417240131614,Россия,189,Фили-Давыдково,Gym,4bf58dd8d48988d176941735
"55.71279161910026,37.50088575573182",55.71279161910026,37.50088575573182,4bff457fca1920a15ba4ec81,World Class Lite,"[('Gym / Fitness Center', '4bf58dd8d48988d175941735')]",55.71477900000001,37.504897,"Мосфильмовская ул., 70, 119590",334,Раменки,Gym / Fitness Center,4bf58dd8d48988d175941735
"55.71108655841979,37.50970748999916",55.71108655841979,37.50970748999916,4da1961c22a5f04d3ea2fe54,ФОК Юбилейный,"[('Gym / Fitness Center', '4bf58dd8d48988d175941735')]",55.70988177576251,37.510201707971895,"ул. Мосфильмовская, 41, к. 2 (Ломоносовский пр-кт)",137,Раменки,Gym / Fitness Center,4bf58dd8d48988d175941735
"55.71108655841979,37.50970748999916",55.71108655841979,37.50970748999916,4e772b0a2271ffa4e7adefcb,Теннисный Центр,"[('Gym', '4bf58dd8d48988d176941735')]",55.710339209539114,37.51008065600034,Россия,86,Раменки,Gym,4bf58dd8d48988d176941735
"55.70596777986401,37.53616700705539",55.705967779864004,37.53616700705539,4e914e4661afcfde2a3527e0,Школа Логиновых,"[('Track', '4bf58dd8d48988d106941735')]",55.706904688228036,37.535622229717056,город Москва,109,Раменки,Track,4bf58dd8d48988d106941735
"55.69742450272786,37.580247238084375",55.69742450272786,37.580247238084375,4de38e6fae60e7f3ac093da3,Спортзал Сбербанка,"[('Gym / Fitness Center', '4bf58dd8d48988d175941735')]",55.69932050827803,37.580210180190676,"Сбербанк HQ (ул. Вавилова, 19)",211,Академический,Gym / Fitness Center,4bf58dd8d48988d175941735
"55.692291355204546,37.60668398979826",55.692291355204546,37.60668398979826,509e3a58e4b0383a0dd66f59,Муромец,"[('Gym', '4bf58dd8d48988d176941735')]",55.69493985609692,37.60706697078326,Загородное шоссе,295,Донской,Gym,4bf58dd8d48988d176941735
"55.688866267129086,37.62430374320232",55.6888662671291,37.62430374320232,543fdcf9498ed8c180d7df2f,Good Time with Sonya Neks,"[('Gym / Fitness Center', '4bf58dd8d48988d175941735')]",55.691230301330364,37.6228965210601,Варшавское Шоссе Д. 33 Стр. 13,277,Донской,Gym / Fitness Center,4bf58dd8d48988d175941735
"55.68200892094516,37.65953184856106",55.68200892094516,37.659531848561066,4f29575fe4b05879ead6d0b8,RockZona,"[('Climbing Gym', '503289d391d4c4b30a586d6a')]",55.683569817076595,37.66198295502931,"просп. Андропова, 22",232,Нагатино-Садовники,Climbing Gym,503289d391d4c4b30a586d6a
"55.68200892094516,37.65953184856106",55.68200892094516,37.659531848561066,4c8ba2663dc2a1cd81eeb732,Alex Fitness (Алекс Фитнес),"[('Gym / Fitness Center', '4bf58dd8d48988d175941735')]",55.6831632856069,37.66268456063457,"БЦ «Нагатинский» (просп. Андропова, 22), 115533",235,Нагатино-Садовники,Gym / Fitness Center,4bf58dd8d48988d175941735
"55.66137960717099,37.76512484361995",55.66137960717099,37.76512484361995,5413ffbd498ec124d5c8a94f,Территория фитнеса,"[('Gym / Fitness Center', '4bf58dd8d48988d175941735')]",55.66203783941178,37.76452660560608,"Перервинский бул., 4, корп. 1",82,Марьино,Gym / Fitness Center,4bf58dd8d48988d175941735
"55.65965662512199,37.773918069718825",55.659656625122,37.77391806971883,517e192ae4b08d47114849f4,"Фитнес-клуб & салон красоты ""БиоАльянс""","[('Gym', '4bf58dd8d48988d176941735')]",55.65870283927085,37.77707856424567,"г. Москва, ул. Марьинский парк, д. 9, к. 2",225,Марьино,Gym,4bf58dd8d48988d176941735
"55.7332756050969,37.41963988689325",55.7332756050969,37.41963988689325,4ed0c01e7ee5be844b912e65,клуб боевых искусств Север,"[('Martial Arts Dojo', '4bf58dd8d48988d101941735')]",55.734246889145936,37.42138660163645,Moscow,153,Кунцево,Martial Arts Dojo,4bf58dd8d48988d101941735
"55.73157597367758,37.42847142105656",55.73157597367758,37.428471421056564,4eef5d4502d514a36c221599,Combat Moscow,"[('Martial Arts Dojo', '4bf58dd8d48988d101941735')]",55.733543873407896,37.42781144850621,"Молодогвардейская ул., 15",222,Кунцево,Martial Arts Dojo,4bf58dd8d48988d101941735
"55.729875741270334,37.43730200923721",55.72987574127034,37.437302009237214,4eaa846a77c850207ecbedc2,Бассейн,"[('Gym Pool', '4bf58dd8d48988d105941735')]",55.72818096378879,37.43826130462849,"World Class (ул. Ивана Франко, 16)",198,Кунцево,Gym Pool,4bf58dd8d48988d105941735
"55.729875741270334,37.43730200923721",55.72987574127034,37.437302009237214,4beeadf7d355a59348240b60,World Class,"[('Gym / Fitness Center', '4bf58dd8d48988d175941735')]",55.72826248028597,37.438367720300405,"улица Ивана Франко, д.16, 121351",191,Кунцево,Gym / Fitness Center,4bf58dd8d48988d175941735
"55.729875741270334,37.43730200923721",55.72987574127034,37.437302009237214,4d171da1b15cb1f71408b221,Атлас,"[('Gym', '4bf58dd8d48988d176941735')]",55.72868700783915,37.44042581398972,"Ивана Франко 14, город Москва",236,Кунцево,Gym,4bf58dd8d48988d176941735
"55.716252264101456,37.50791263591208",55.716252264101456,37.50791263591208,4c18f8f26a21c9b635ccc997,Премьер Спорт,"[('Gym / Fitness Center', '4bf58dd8d48988d175941735')]",55.71730087106762,37.50995988748164,"ул. Улофа Пальме, 5 (ул. Довженко), 119590",173,Раменки,Gym / Fitness Center,4bf58dd8d48988d175941735
"55.716252264101456,37.50791263591208",55.716252264101456,37.50791263591208,4ed0cc0961af476c0903c27c,Бассейн,"[('Gym Pool', '4bf58dd8d48988d105941735')]",55.71573386327172,37.506488345264025,"World Class (Мосфильмовская ул., 70)",106,Раменки,Gym Pool,4bf58dd8d48988d105941735
"55.716252264101456,37.50791263591208",55.716252264101456,37.50791263591208,4eb0192a8b81d80bd8002a29,Бассейн,"[('Gym Pool', '4bf58dd8d48988d105941735')]",55.71730957859954,37.50994246350814,"Премьер Спорт (ул. Улофа Пальме, 5), 119590",173,Раменки,Gym Pool,4bf58dd8d48988d105941735
"55.71284039523103,37.52555581912938",55.71284039523103,37.52555581912938,51aa32cb498ea24ab5e29b5f,Luxe Fitness,"[('Gym / Fitness Center', '4bf58dd8d48988d175941735')]",55.715699123838604,37.525745177083685,"Мичуринский просп., 6",318,Раменки,Gym / Fitness Center,4bf58dd8d48988d175941735
"55.71284039523103,37.52555581912938",55.71284039523103,37.52555581912938,4fb12b8ce4b078fd5bfc04d2,Абсолют Фитнес,"[('Gym / Fitness Center', '4bf58dd8d48988d175941735')]",55.712582999999995,37.5217,"Дружбы, 2/19, 119330",243,Раменки,Gym / Fitness Center,4bf58dd8d48988d175941735
"55.71284039523103,37.52555581912938",55.71284039523103,37.52555581912938,5048c641e4b0690ac75cc189,Yoga Practika,"[('Yoga Studio', '4bf58dd8d48988d102941735')]",55.71352975296793,37.52472614718373,"Мичуринский пр., 6с4",92,Раменки,Yoga Studio,4bf58dd8d48988d102941735
"55.70771809702804,37.55201348257317",55.707718097028035,37.55201348257317,5145b6f3e4b086ca851310b4,Спортивная площадка,"[('Outdoor Gym', '58daa1558bbb0b01f18ec203')]",55.708889,37.551389,Природный заказник «Воробьёвы горы»,136,Раменки,Outdoor Gym,58daa1558bbb0b01f18ec203
"55.70771809702804,37.55201348257317",55.707718097028035,37.55201348257317,4e7efa6930f8f0456a9c9f97,Монолит,"[('Gym / Fitness Center', '4bf58dd8d48988d175941735')]",55.70635110458541,37.549300430525506,"Улица Косыгина, 19",228,Раменки,Gym / Fitness Center,4bf58dd8d48988d175941735
"55.700879981805286,37.587277084487496",55.700879981805286,37.58727708448749,506f0362e4b09e71e13646ca,Кендо,"[('Martial Arts Dojo', '4bf58dd8d48988d101941735')]",55.700481695818475,37.59074824904796,Ул. Вавилова 9а стр.23,222,Академический,Martial Arts Dojo,4bf58dd8d48988d101941735
"55.69574511233448,37.61371481718852",55.69574511233448,37.61371481718852,4c337ff9452620a181b3230f,World Class,"[('Gym / Fitness Center', '4bf58dd8d48988d175941735')]",55.69706964100338,37.618088722229,"Варшавское шоссе, д.12А, 117105",311,Донской,Gym / Fitness Center,4bf58dd8d48988d175941735
"55.694032293192066,37.62252549492685",55.69403229319207,37.622525494926855,546630b2498e4869daa29112,Спортзал СберТеха,"[('Gym', '4bf58dd8d48988d176941735')]",55.69585362622182,37.62605533990959,"Новоданиловская наб., д.10",300,Донской,Gym,4bf58dd8d48988d176941735
"55.694032293192066,37.62252549492685",55.69403229319207,37.622525494926855,4c1b8942eac020a15df744c2,Планета Фитнес,"[('Gym / Fitness Center', '4bf58dd8d48988d175941735')]",55.69603445926293,37.62012720108032,"Варшавское ш., 14, стр. 1, 117105",268,Донской,Gym / Fitness Center,4bf58dd8d48988d175941735
"55.67343188145721,37.72817945516419",55.67343188145721,37.72817945516419,53fb2020498ea66a49d3cb44,Зебра Фитнес SPA БАССЕЙН,"[('Gym / Fitness Center', '4bf58dd8d48988d175941735')]",55.67304965107421,37.72514458251535,Полбина 33,195,Печатники,Gym / Fitness Center,4bf58dd8d48988d175941735
"55.66482303300708,37.772161475683326",55.66482303300708,37.772161475683326,4f3e264ee4b04eeb4a16e397,Фитнес клуб Le Ton,"[('Gym / Fitness Center', '4bf58dd8d48988d175941735')]",55.6677336356063,37.77156127699777,"Верхние Поля, 43",326,Люблино,Gym / Fitness Center,4bf58dd8d48988d175941735
"55.74014008977413,37.40899813423358",55.74014008977413,37.40899813423358,53ecb211498e4d9f67ff2a78,World Class,"[('Gym / Fitness Center', '4bf58dd8d48988d175941735')]",55.73859127721825,37.411004499999926,"улица Ярцевская, д.19 (Ярцевская ул., 19), 121552",213,Кунцево,Gym / Fitness Center,4bf58dd8d48988d175941735
"55.74014008977413,37.40899813423358",55.74014008977413,37.40899813423358,4eb422698b81a81f8ff99a00,Тренажерный Зал,"[('Gym', '4bf58dd8d48988d176941735')]",55.73838411868288,37.40791653385938,"Партизанская, 31 (Ярцевская)",206,Кунцево,Gym,4bf58dd8d48988d176941735
"55.72653123733177,37.47964172896217",55.72653123733177,37.47964172896217,505342e5e4b09a662c8bb026,WeGym,"[('Gym / Fitness Center', '4bf58dd8d48988d175941735')]",55.72712597968588,37.48088483173533,"Давыдковская ул., 3, стр. 1 (Славянский бул.), 121352",102,Фили-Давыдково,Gym / Fitness Center,4bf58dd8d48988d175941735
"55.7111753628701,37.55904329290878",55.7111753628701,37.55904329290878,5582e04b498ebf2e8aecaadc,Берег,"[('Gym / Fitness Center', '4bf58dd8d48988d175941735')]",55.71187482767171,37.55778411627699,Москва,110,Хамовники,Gym / Fitness Center,4bf58dd8d48988d175941735
"55.7111753628701,37.55904329290878",55.7111753628701,37.55904329290878,50040786e4b0bc5170784f7f,Площадка для воркаута,"[('Outdoor Gym', '58daa1558bbb0b01f18ec203')]",55.713572468729595,37.5599053797178,Парк «Лужники»,272,Хамовники,Outdoor Gym,58daa1558bbb0b01f18ec203
"55.7111753628701,37.55904329290878",55.7111753628701,37.55904329290878,51037c64e4b0cc5c71f8d1f8,"Ск ""Золотые перчатки"" Яновского В.Е","[('Gym', '4bf58dd8d48988d176941735')]",55.71280104336872,37.55904879203186,"Лужнецкая Набережная 24/4, м.Воробьевы ",180,Хамовники,Gym,4bf58dd8d48988d176941735
"55.70091115496297,37.611934966744855",55.70091115496297,37.611934966744855,50ead9eee4b0674610078d6c,Eagle Trampoline,"[('Gymnastics Gym', '52f2ab2ebcbc57f1066b8b48')]",55.69935488744528,37.61529558982485,"Загородное ш., 1, корп. 2, стр. 2, 117152",272,Донской,Gymnastics Gym,52f2ab2ebcbc57f1066b8b48
"55.68890903715362,37.673598678892056",55.688909037153614,37.673598678892056,4ef5a04830f894d866f1421d,Workout-зона!,"[('Outdoor Gym', '58daa1558bbb0b01f18ec203')]",55.686317333594275,37.6737133018076,Нагатинская набережная 40,288,Нагатинский Затон,Outdoor Gym,58daa1558bbb0b01f18ec203
"55.685474485362775,37.69120832067893",55.685474485362775,37.69120832067893,4ed675446da11135034d59ae,Прадна Фитнес,"[('Gym / Fitness Center', '4bf58dd8d48988d175941735')]",55.684925900972175,37.687304904601724,Судостроительная 41,252,Нагатинский Затон,Gym / Fitness Center,4bf58dd8d48988d175941735
"55.68203754672814,37.708814154487165",55.68203754672815,37.70881415448717,4fe49f0ee4b056dc1bb373ad,Велотрек,"[('Track', '4bf58dd8d48988d106941735')]",55.68359909047848,37.70950166965846,Россия,179,Нагатинский Затон,Track,4bf58dd8d48988d106941735
"55.68203754672814,37.708814154487165",55.68203754672815,37.70881415448717,4e503b4c1f6eae4d25264b49,Треугольник Камней,"[('Yoga Studio', '4bf58dd8d48988d102941735')]",55.683770296855535,37.70858925285716,"коломенская набережная, город Москва",193,Нагатинский Затон,Yoga Studio,4bf58dd8d48988d102941735
"55.6803181827139,37.717615642925935",55.6803181827139,37.71761564292594,51432d01e4b0d92b46dd6558,Территория Фитнеса,"[('Gym / Fitness Center', '4bf58dd8d48988d175941735')]",55.680576,37.715621999999996,"ул. Гурьянова, 30",128,Печатники,Gym / Fitness Center,4bf58dd8d48988d175941735
"55.678598222432186,37.72641617880243",55.678598222432186,37.72641617880243,5213a08b11d2447e7727f4a4,"Спортивный центр ""Новатор""","[('Gym', '4bf58dd8d48988d176941735')]",55.68028976213819,37.73104452565549,Ул. Полбина д.9 стр.3,346,Печатники,Gym,4bf58dd8d48988d176941735
"55.752095469455696,37.371838890225085",55.7520954694557,37.37183889022509,4eec52288b81bbbf5bd6a6c6,Теннисный Центр В Жуковке,"[('Gym', '4bf58dd8d48988d176941735')]",55.753292497109044,37.36929313512568,Россия,207,Кунцево,Gym,4bf58dd8d48988d176941735
"55.73850607181155,37.44252302309538",55.73850607181154,37.44252302309538,4d7e476c3633a093b5b87b9d,Олимпик Стар,"[('Gym / Fitness Center', '4bf58dd8d48988d175941735')]",55.73890436279146,37.44041831828035,"Рублевское ш., 10",139,Филёвский Парк,Gym / Fitness Center,4bf58dd8d48988d175941735
"55.736804691121414,37.45135428094558",55.73680469112141,37.45135428094558,4f98233fe4b08ae4a07df383,Качалка под открытым небом в Суворовском парке,"[('Gym', '4bf58dd8d48988d176941735')]",55.736670790791855,37.4555178209047,Россия,261,Филёвский Парк,Gym,4bf58dd8d48988d176941735
"55.73510270959189,37.46018459175335",55.73510270959189,37.46018459175335,500ab1c3e4b0cefa4f5761d9,"Спортивный комплекс ""Фили-Давыдково 2000""","[('Gym', '4bf58dd8d48988d176941735')]",55.73434542414096,37.457453511720345,"ул. Малая Филевская, 34, к1, 121433",190,Фили-Давыдково,Gym,4bf58dd8d48988d176941735
"55.73510270959189,37.46018459175335",55.73510270959189,37.46018459175335,4ca73007b0b8236a5467a6e6,Бассейн училища Олимпийского резерва  №2,"[('Gym Pool', '4bf58dd8d48988d105941735')]",55.73490350968727,37.45822078763955,"ул. Малая Филевская, 34, стр. 1, 121433",125,Фили-Давыдково,Gym Pool,4bf58dd8d48988d105941735
"55.73510270959189,37.46018459175335",55.73510270959189,37.46018459175335,4fc8e54ce4b0665181fcf5eb,СОК,"[('Gym', '4bf58dd8d48988d176941735')]",55.73434720062136,37.456866217779854,Россия,224,Фили-Давыдково,Gym,4bf58dd8d48988d176941735
"55.719757862351805,37.539614740015416",55.719757862351805,37.539614740015416,5749737c498e361e2df124e7,Трапеция YOTA,"[('Gymnastics Gym', '52f2ab2ebcbc57f1066b8b48')]",55.72075115519298,37.543362357314294,Спортивный городок «Лужники»,259,Хамовники,Gymnastics Gym,52f2ab2ebcbc57f1066b8b48
"55.71804988052909,37.548435569710506",55.7180498805291,37.548435569710506,4b5d478cf964a5208e5829e3,Мультиспорт,"[('Gym / Fitness Center', '4bf58dd8d48988d175941735')]",55.721078256682176,37.548621670786545,"ул. Лужники, 24, стр. 10",337,Хамовники,Gym / Fitness Center,4bf58dd8d48988d175941735
"55.71804988052909,37.548435569710506",55.7180498805291,37.548435569710506,536a76e211d211b7f04d6e66,Академия бокса,"[('Boxing Gym', '52f2ab2ebcbc57f1066b8b47')]",55.71909162153133,37.54823353072658,"ул. Лужники, 24, стр. 3, 119048",116,Хамовники,Boxing Gym,52f2ab2ebcbc57f1066b8b47
"55.71463211937499,37.56607438138101",55.71463211937499,37.56607438138101,5455f877498ec012db76b3aa,Акробат,"[('Gymnastics Gym', '52f2ab2ebcbc57f1066b8b48')]",55.71437109909938,37.56921093418929,"Лужнецкая наб., 10а, стр. 4",198,Хамовники,Gymnastics Gym,52f2ab2ebcbc57f1066b8b48
"55.71121196252587,37.5837093948081",55.711211962525866,37.5837093948081,4faf9736e4b081590846c820,Reebok Парки,"[('Outdoor Gym', '58daa1558bbb0b01f18ec203')]",55.712194878484716,37.58248351332536,Нескучный cад,133,Якиманка,Outdoor Gym,58daa1558bbb0b01f18ec203
"55.71121196252587,37.5837093948081",55.711211962525866,37.5837093948081,4faf5cd0e5e8475298b309a8,Площадка для воркаута,"[('Outdoor Gym', '58daa1558bbb0b01f18ec203')]",55.71312961714498,37.582745120630285,Нескучный сад,221,Якиманка,Outdoor Gym,58daa1558bbb0b01f18ec203
"55.70778941116198,37.601340608454045",55.707789411161976,37.601340608454045,547cc266498ef97a10bcd004,Power Style,"[('Gym / Fitness Center', '4bf58dd8d48988d175941735')]",55.70823730749672,37.60021413191069,"5-й Донской пр., 15, корп. 3",86,Донской,Gym / Fitness Center,4bf58dd8d48988d175941735
"55.70778941116198,37.601340608454045",55.707789411161976,37.601340608454045,573b38ac498e179862be68d5,Скалодром 4810,"[('Climbing Gym', '503289d391d4c4b30a586d6a')]",55.707757154748116,37.597361139271285,"Орджоникидзе 11, строение 42, подъезд 9",249,Донской,Climbing Gym,503289d391d4c4b30a586d6a
"55.7009371296126,37.63659163026763",55.7009371296126,37.63659163026763,55ae8f16498eb6db5c4313e2,"Батутный Центр ""Олимпионик""","[('Gymnastics Gym', '52f2ab2ebcbc57f1066b8b48')]",55.7037616167534,37.636896902624414,"Автозаводская ул., д.23/12, 115280",315,Даниловский,Gymnastics Gym,52f2ab2ebcbc57f1066b8b48
"55.69579164163259,37.663019910812736",55.695791641632596,37.663019910812736,54c0f02c498e17b212484b11,Gym @RaiffeisenBank,"[('Gym', '4bf58dd8d48988d176941735')]",55.69601896747752,37.66270504741428,"Andropova Avenue, 18 bld 2",32,Даниловский,Gym,4bf58dd8d48988d176941735
"55.688922629484935,37.69824429400661",55.68892262948494,37.69824429400661,4e8720fe30f8e3ea6b91022a,Power Pack Gym,"[('Gym', '4bf58dd8d48988d176941735')]",55.68823171286143,37.69548042205188,город Москва,189,Нагатинский Затон,Gym,4bf58dd8d48988d176941735
"55.68376460441648,37.72465258160915",55.683764604416474,37.72465258160915,56a8e751498eb09d1790d839,Winner,"[('Gym', '4bf58dd8d48988d176941735')]",55.686373473401616,37.72184509705493,"Ул. Кухмистерова, 5",339,Печатники,Gym,4bf58dd8d48988d176941735
"55.682044069999826,37.73345343841151",55.682044069999826,37.73345343841151,4e1f32f1fa76920758b51c9e,Арт Фитнес,"[('Gym / Fitness Center', '4bf58dd8d48988d175941735')]",55.68343748435757,37.73084978801087,"Ул. Полбина, д. 3, стр. 1",225,Печатники,Gym / Fitness Center,4bf58dd8d48988d175941735
"55.680322939466116,37.74225334203332",55.680322939466116,37.74225334203332,50febbcbe4b0b850378f7090,Кодзицу,"[('Martial Arts Dojo', '4bf58dd8d48988d101941735')]",55.68024202374046,37.74739612895088,Россия,322,Люблино,Martial Arts Dojo,4bf58dd8d48988d101941735
"55.7470726170326,37.42305028662376",55.74707261703261,37.423050286623756,5c00cf956adbf5002c89dde9,Neofit,"[('Gym / Fitness Center', '4bf58dd8d48988d175941735')]",55.74882449352209,37.42410725429069,"Крылатские Холмы дом 5 корпус 1, 121609",205,Крылатское,Gym / Fitness Center,4bf58dd8d48988d175941735
"55.7470726170326,37.42305028662376",55.74707261703261,37.423050286623756,51b5dd93498e537e2b397363,MG Fitness,"[('Gym', '4bf58dd8d48988d176941735')]",55.74911211534597,37.42328153384685,"ул. Крылатские Холмы, 5, стр. 1",227,Крылатское,Gym,4bf58dd8d48988d176941735
"55.74367171261408,37.4407182068999",55.74367171261408,37.4407182068999,50291b07e4b0f23b02924b61,Спорт площадка у Крылатского моста,"[('Gym / Fitness Center', '4bf58dd8d48988d175941735')]",55.74541135791772,37.43755313188674,"Крылатский мост, 200 м вниз по течению",277,Филёвский Парк,Gym / Fitness Center,4bf58dd8d48988d175941735
"55.736862691358034,37.47604268087706",55.736862691358034,37.47604268087706,5224e0b111d228d6978085aa,Hardcore Gym,"[('Gym', '4bf58dd8d48988d176941735')]",55.73469651010939,37.47443863297378,Kastanaevskaya st.,261,Фили-Давыдково,Gym,4bf58dd8d48988d176941735
"55.736862691358034,37.47604268087706",55.736862691358034,37.47604268087706,511a65c9e4b03bddc390fb56,Фитнес Холл,"[('Gym / Fitness Center', '4bf58dd8d48988d175941735')]",55.73577550569669,37.479827793315174,"Кастанаевская, 38",266,Фили-Давыдково,Gym / Fitness Center,4bf58dd8d48988d175941735
"55.736862691358034,37.47604268087706",55.736862691358034,37.47604268087706,588c838d5289302f3016e561,PARISLIFE fitness,"[('Gym / Fitness Center', '4bf58dd8d48988d175941735')]",55.734772789428256,37.47421524826391,"ул. Кастанаевская, д. 42 корп.2, 121108",259,Фили-Давыдково,Gym / Fitness Center,4bf58dd8d48988d175941735
"55.731749619188356,37.502526084467284",55.731749619188356,37.502526084467284,5662dbbb498e31817710bd2f,Reebok Парки,"[('Outdoor Gym', '58daa1558bbb0b01f18ec203')]",55.731174291744786,37.50307702238864,Парк Победы,72,Дорогомилово,Outdoor Gym,58daa1558bbb0b01f18ec203
"55.72321583216475,37.546646118929374",55.72321583216475,37.546646118929374,4f3f7076e4b020913c27fe3e,Европейский гимнастический центр,"[('Gymnastics Gym', '52f2ab2ebcbc57f1066b8b48')]",55.72179962198214,37.54661515504922,"Лужнецкая наб., 24, стр. 2, 119270",157,Хамовники,Gymnastics Gym,52f2ab2ebcbc57f1066b8b48
"55.721507276075734,37.555467278351685",55.72150727607573,37.555467278351685,55e180b8498e77ce6c707198,Анатомия. Персональный фитнес,"[('Gymnastics Gym', '52f2ab2ebcbc57f1066b8b48')]",55.72250426657151,37.56027635660187,Улица Усачёва,321,Хамовники,Gymnastics Gym,52f2ab2ebcbc57f1066b8b48
"55.71808836639331,37.573106748182305",55.71808836639331,37.57310674818231,4dd3f56bb0fbf653b6492c30,СК «Фрунзенский»,"[('Gym / Fitness Center', '4bf58dd8d48988d175941735')]",55.71954803729636,37.57786018336385,"3-я Фрунзенская ул., 5, стр. 2",339,Хамовники,Gym / Fitness Center,4bf58dd8d48988d175941735
"55.712955510322026,37.599558827506776",55.712955510322026,37.59955882750677,551ff95e498e2b3d70ecbe9d,Тренажерный зал МГЮА им. О. Е. Кутафина,"[('Gym', '4bf58dd8d48988d176941735')]",55.71246695835888,37.595217324355396,Россия,277,Донской,Gym,4bf58dd8d48988d176941735
"55.71124336114258,37.60837428640088",55.71124336114258,37.60837428640088,4f4e2761e4b052b87b94e3b0,Plasty Plus,"[('Gym / Fitness Center', '4bf58dd8d48988d175941735')]",55.71252795371686,37.60639320814358,"ул. Шаболовка, 54",189,Донской,Gym / Fitness Center,4bf58dd8d48988d175941735
"55.70953061363134,37.61718879453509",55.709530613631344,37.617188794535096,5273790211d2e38fd2fcaf60,Alex Fitness,"[('Gym / Fitness Center', '4bf58dd8d48988d175941735')]",55.70795813252286,37.621547192459815,"ТРЦ «Ереван Плаза» (Большая Тульская ул., 13), 115191",324,Даниловский,Gym / Fitness Center,4bf58dd8d48988d175941735
"55.70610332420417,37.634814957758294",55.70610332420417,37.63481495775829,5a01da229ef8ef5776a57b4f,Lomov Gym,"[('Gym / Fitness Center', '4bf58dd8d48988d175941735')]",55.705290275968466,37.63736611779307,"ТРЦ «Ривьера» (Автозаводская ул., 18), 115280",183,Даниловский,Gym / Fitness Center,4bf58dd8d48988d175941735
"55.702673643222134,37.652437315647404",55.702673643222134,37.652437315647404,4d6fb2c8516b8cfa14dc5510,Бассейн «Торпедо»,"[('Gym Pool', '4bf58dd8d48988d105941735')]",55.70312775313147,37.65153923941611,"СК «Торпедо» (Автозаводская ул., 21)",75,Даниловский,Gym Pool,4bf58dd8d48988d105941735
"55.702673643222134,37.652437315647404",55.702673643222134,37.652437315647404,4dff6d5bd22d48be8128c73c,Спортивный комплекс «Торпедо»,"[('Gym / Fitness Center', '4bf58dd8d48988d175941735')]",55.70320429193532,37.65232105940007,"Автозаводская ул., 21 (ТТК)",59,Даниловский,Gym / Fitness Center,4bf58dd8d48988d175941735
"55.702673643222134,37.652437315647404",55.702673643222134,37.652437315647404,51927163498e986ea9599a6c,Zavod,"[('Gym / Fitness Center', '4bf58dd8d48988d175941735')]",55.701536161974346,37.65747434635337,"2-й Кожуховский Проезд, 25, стр. 3",340,Даниловский,Gym / Fitness Center,4bf58dd8d48988d175941735
"55.702673643222134,37.652437315647404",55.702673643222134,37.652437315647404,4f1284d1e4b067f670c51f6f,"Детский бассейн ""Утенок""","[('Gym Pool', '4bf58dd8d48988d105941735')]",55.702817586791895,37.65160739680993,"Москва, ул. Автозаводская, д. 21",54,Даниловский,Gym Pool,4bf58dd8d48988d105941735
"55.68204540089184,37.758091465747626",55.682045400891845,37.758091465747626,5075a3dfe4b0b3e998f6c9fd,Стрелец,"[('Gym', '4bf58dd8d48988d176941735')]",55.68019973063112,37.757694901822354,Россия,206,Люблино,Gym,4bf58dd8d48988d176941735
"55.755636687273174,37.403568297231814",55.75563668727317,37.403568297231814,4e5e7f431838f7255276fda1,M&G,"[('Gym', '4bf58dd8d48988d176941735')]",55.75402713225496,37.40573611628576,"Рублевское ш., 48",224,Крылатское,Gym,4bf58dd8d48988d176941735
"55.738620415299444,37.49190176983852",55.73862041529944,37.49190176983852,4fd387fde4b09c1657400c22,Тонус-клуб,"[('Gym', '4bf58dd8d48988d176941735')]",55.738640457293386,37.48845539799306,"Ул. Олеко Дундича 21, корп. 3",215,Филёвский Парк,Gym,4bf58dd8d48988d176941735
"55.736915483494776,37.50072990361195",55.736915483494776,37.50072990361195,5208bc5c93cd2b9fde045eb7,X-Fit,"[('Gym / Fitness Center', '4bf58dd8d48988d175941735')]",55.737290064775856,37.50410140800053,"ул. Василисы Кожиной, 1, 121170",215,Филёвский Парк,Gym / Fitness Center,4bf58dd8d48988d175941735
"55.73008975526761,37.53603294991482",55.73008975526761,37.53603294991482,4eb6b03eb8030fb583631554,AlexFitness,"[('Gym', '4bf58dd8d48988d176941735')]",55.728462394188355,37.53979979531256,Россия,297,Раменки,Gym,4bf58dd8d48988d176941735
"55.72838182369597,37.54485633832456",55.72838182369596,37.544856338324564,5355e27f498e38a8eb3535a1,Беговая дорожка,"[('Track', '4bf58dd8d48988d106941735')]",55.727391000000004,37.542309,Воробьевская наб.,194,Раменки,Track,4bf58dd8d48988d106941735
"55.72496416216745,37.562500265992085",55.72496416216745,37.56250026599209,555cb5cc498ebde07375aca5,Dance Studio Feelings 2,"[('Gymnastics Gym', '52f2ab2ebcbc57f1066b8b48')]",55.725440229320284,37.56229379910549,Улица Усачева 62с1,54,Хамовники,Gymnastics Gym,52f2ab2ebcbc57f1066b8b48
"55.72154410377561,37.58014039350504",55.72154410377561,37.58014039350504,4bb849e17421a5939cb5c140,Московское городское физкультурно-спортивное объединение (МГФСО),"[('Gym', '4bf58dd8d48988d176941735')]",55.720687793593825,37.57729007715081,"3-я Фрунзенская ул., 5, 119270",202,Хамовники,Gym,4bf58dd8d48988d176941735
"55.718121649701246,37.59777671932387",55.71812164970125,37.59777671932387,4d4ad4b111a36ea8ff6d351c,Биосфера,"[('Gym / Fitness Center', '4bf58dd8d48988d175941735')]",55.71809011062589,37.5979344835831,"Малая Калужская ул., 15, стр. 4",10,Донской,Gym / Fitness Center,4bf58dd8d48988d175941735
"55.7164095246522,37.60659345611774",55.71640952465221,37.60659345611774,4e29a67c62846e3862f17108,Спорт Клуб Энергия,"[('Gym', '4bf58dd8d48988d176941735')]",55.716811693198395,37.609988101479175,Шухова Д.18 (Шухова 18),217,Донской,Gym,4bf58dd8d48988d176941735
"55.71469680112548,37.615409241912204",55.71469680112548,37.61540924191221,4d83a262f9f3a1cd7de1a464,Бассейн Москворечье,"[('Gym Pool', '4bf58dd8d48988d105941735')]",55.71458832921827,37.61911709119032,"ул. Лестева, 3",232,Даниловский,Gym Pool,4bf58dd8d48988d105941735
"55.71126955922982,37.633037959736946",55.71126955922982,37.63303795973695,4c9f184f7c096dcbea83dbd1,World Gym,"[('Gym / Fitness Center', '4bf58dd8d48988d175941735')]",55.711155000000005,37.63277,"Дубининская ул., 71",21,Даниловский,Gym / Fitness Center,4bf58dd8d48988d175941735
"55.71126955922982,37.633037959736946",55.71126955922982,37.63303795973695,514882f0e4b06d5da78c4442,Monkey Studio,"[('Gym / Fitness Center', '4bf58dd8d48988d175941735')]",55.71332506887231,37.63407877930672,Россия,237,Даниловский,Gym / Fitness Center,4bf58dd8d48988d175941735
"55.71126955922982,37.633037959736946",55.71126955922982,37.63303795973695,5b7c4a3edb2aeb002ce081b7,Masters,"[('Gym / Fitness Center', '4bf58dd8d48988d175941735')]",55.71115506384242,37.63269876149271,"Дубининская ул., 71, 115054",24,Даниловский,Gym / Fitness Center,4bf58dd8d48988d175941735
"55.70097348544393,37.68590126934667",55.700973485443924,37.68590126934667,4eef39db9adf257d68c69f98,Спортзал ЦСКО Сбербанка,"[('Gym', '4bf58dd8d48988d176941735')]",55.700941113629945,37.689988516457426,Москва,256,Печатники,Gym,4bf58dd8d48988d176941735
"55.69065591434774,37.73873028120076",55.690655914347744,37.73873028120076,4c3c77b15a10b713b38fa34d,Бассейн Дворца Пионеров и Школьников им. Гайдара,"[('Gym Pool', '4bf58dd8d48988d105941735')]",55.69196858360733,37.743209058284,"Москва,ул. Шкулева, д. 2",316,Текстильщики,Gym Pool,4bf58dd8d48988d105941735
"55.75740390831071,37.419434517954784",55.75740390831071,37.419434517954784,4e12394881dcc5457256bc94,La Collina,"[('Gym / Fitness Center', '4bf58dd8d48988d175941735')]",55.75876905363007,37.41965259478046,"ул. Крылатские холмы, 35",152,Крылатское,Gym / Fitness Center,4bf58dd8d48988d175941735
"55.75740390831071,37.419434517954784",55.75740390831071,37.419434517954784,4e8d34f4b8f71a700b13c493,Йога Практика,"[('Yoga Studio', '4bf58dd8d48988d102941735')]",55.75668245515472,37.41869797174969,"ул. Крылатские Холмы, 33",92,Крылатское,Yoga Studio,4bf58dd8d48988d102941735
"55.75740390831071,37.419434517954784",55.75740390831071,37.419434517954784,4fa3a5d3e4b0baf7cbefde93,NeoFit Club,"[('Gym / Fitness Center', '4bf58dd8d48988d175941735')]",55.75675961967797,37.41816153319984,"ул. Крылатские Холмы, 33",107,Крылатское,Gym / Fitness Center,4bf58dd8d48988d175941735
"55.74037588114374,37.50776185662705",55.74037588114374,37.50776185662704,4da830ac81541df437b67169,WeGym,"[('Gym / Fitness Center', '4bf58dd8d48988d175941735')]",55.73944368334714,37.5083064385426,"ул. Барклая, 6, стр. 5",109,Филёвский Парк,Gym / Fitness Center,4bf58dd8d48988d175941735
"55.74037588114374,37.50776185662705",55.74037588114374,37.50776185662704,59afd4086f0aa26602d3a8cb,Fitness One Art Горбушкин Двор,"[('Gym / Fitness Center', '4bf58dd8d48988d175941735')]",55.741760198188416,37.50509793130472,121309,227,Филёвский Парк,Gym / Fitness Center,4bf58dd8d48988d175941735
"55.73696306802719,37.525415941175076",55.736963068027194,37.525415941175076,4dfdf71c149599f28fcfcfc6,Скала Сити ССК,"[('Climbing Gym', '503289d391d4c4b30a586d6a')]",55.739857912239415,37.527017911481316,"Кутузовский пр-т, 36, стр. 3",337,Дорогомилово,Climbing Gym,503289d391d4c4b30a586d6a
"55.73013024354827,37.56071271466407",55.73013024354827,37.56071271466407,561e8d13498ee3b75d5c6fa5,Dozen CrossFit Club,"[('Gym / Fitness Center', '4bf58dd8d48988d175941735')]",55.73189711818166,37.560160116608756,Большой Саввинский Переулок 12 стр. 12,199,Хамовники,Gym / Fitness Center,4bf58dd8d48988d175941735
"55.72842053865475,37.56953453282443",55.728420538654746,37.56953453282443,586d53052bc5e206e476c408,Дон-спорт Хамовники,"[('Gym / Fitness Center', '4bf58dd8d48988d175941735')]",55.72965176328425,37.57079052609606,"Ул. Малая Пироговская, д. 8, ЖК Барин-Хаус",158,Хамовники,Gym / Fitness Center,4bf58dd8d48988d175941735
"55.72842053865475,37.56953453282443",55.728420538654746,37.56953453282443,4c4940869e3e2d7fa9c68448,X-Fit,"[('Gym / Fitness Center', '4bf58dd8d48988d175941735')]",55.7302106914493,37.5725297226084,"Усачёва ул., 2, стр. 3 (Малая Пироговская ул.)",273,Хамовники,Gym / Fitness Center,4bf58dd8d48988d175941735
"55.72842053865475,37.56953453282443",55.728420538654746,37.56953453282443,4df4d8db483bdb5e1378eb52,Аянтра,"[('Gym / Fitness Center', '4bf58dd8d48988d175941735')]",55.72862721011717,37.57215597066793,"Усачева ул., 10, корп. 1 (Трубецкая ул.)",165,Хамовники,Gym / Fitness Center,4bf58dd8d48988d175941735
