Borough_Name,Venue_Name,Venue_Category_Name,Venue_Location,Venue_Latitude,Venue_Longitude
Южное Бутово,Фитнес Гуру,Gym / Fitness Center,Ул. Адмирала Руднева д.4,55.543828290275485,37.52668662554533
Южное Бутово,Yoga Practika,Yoga Studio,"Южнобутовская ул., д.36",55.54155636000794,37.5361958238015
Южное Бутово,Тонус Клуб,Gym,"Южнобутовская, 36",55.541652319616496,37.536339938899054
Южное Бутово,ЖелезКа,Gym,Ноао,55.53358818506744,37.581014734778826
Южное Бутово,Зебра,Gym / Fitness Center,"ТЦ «Витте Молл» (Венёвская ул., 6), 117042",55.54804126101387,37.54363765539306
Южное Бутово,Ангел,Gym,Скобелевская улица дом 2,55.55088580731636,37.55458482854212
Южное Бутово,Фитнес Гуру,Gym,Изюмская 22-3,55.55190278224392,37.55747065327271
Южное Бутово,Спорт К,Gym,Россия,55.55161491305736,37.55703241403508
Южное Бутово,Фитнес-клуб Зебра ЭТАЛОН,Gym / Fitness Center,"Ул. Поляны 5, 117042",55.55777,37.555107
Ясенево,Фитнес-центр «Мореон»,Gym / Fitness Center,"Аквапарк МОРЕОН (Голубинская ул., 16), 117574",55.597151633539845,37.52790469437889
Ново-Переделкино,Family Club,Gym / Fitness Center,"ул. Шолохова, 5 (ул. Новоорловская)",55.63635870332252,37.35565066337585
Ясенево,Физкультурно-оздоровительный комплекс Ясенево,Gym,"Вильнюсская ул., 6, к. 2, 117574",55.60476795210455,37.51977300335089
Ясенево,Центр йоги и здоровья в Ясенево,Yoga Studio,ул. Тарусская 18,55.60319257905524,37.528975323372975
Ясенево,"ГУП ""Час Спорта""",Gym,"ул. Паустовского, 4А, 117463",55.60178212527328,37.53621158326651
Ясенево,Спортивная площадка,Gym,усадьба Ясенево,55.59770600539632,37.549704804396974
Чертаново Южное,Центр Физической Культуры И Спорта,Gym,"Дорожная ул., 44",55.58786452086832,37.61287723093038
Чертаново Южное,ФОК ул. Дорожная,Gym,Россия,55.58781033498804,37.61295602000617
Ново-Переделкино,Олимпик Фитнес,Gym / Fitness Center,Боровское шоссе 43,55.63996079319308,37.35631167764267
Бирюлёво Восточное,Alex Fitness,Gym / Fitness Center,"Михневская,4",55.57872872493286,37.66538004993381
Ясенево,Спортлэнд,Gym / Fitness Center,"Новоясеневский проспект, д. 3А, стр.1",55.61474649402648,37.51404545424925
Ясенево,Encore Fitness,Gym / Fitness Center,"Новоясеневский проезд, 9, 117588",55.60907878677347,37.535668751366956
Ясенево,"Тренажерный зал ""Обыкновенное Чудо""",Gym,Россия,55.610262647043285,37.536388389529364
Чертаново Южное,HARDCORE GYM,Gym,"Чертановская ул., 45-а, корп. 1",55.602343188039036,37.5825396788342
Бирюлёво Восточное,"Школа дзюдо ""Юность Москвы""",Martial Arts Dojo,"Михневская ул., 5К1, 115547",55.58551271000664,37.66121509626587
Бирюлёво Восточное,СДЮСШОР №47 ФОК «Южный»,Gym / Fitness Center,"Лебедянская ул., 18, 115372",55.58563386557528,37.674050331115716
Ново-Переделкино,Magneto Sport&SPA,Gym / Fitness Center,"6-я ул. Новые Сады, 2, стр. 1",55.65219377560487,37.34808302165137
Ясенево,"МУ ЦСиД ""Атлант""",Martial Arts Dojo,"Литовский б-р, д.11, к.2 (ул.Айвазовского)",55.61332264804292,37.54219710453125
Чертаново Центральное,"ФОК ""Красный Маяк"" МГФСО",Gym,"Ул. Красного Маяка, д.28, к.1",55.606378694710905,37.58108983608283
Чертаново Южное,Fitsolution,Gym,"Кировоградская ул., 23а",55.60080020426318,37.59879880657881
Чертаново Южное,Paris Life,Gym / Fitness Center,"ул. Кировоградская, д. 23а",55.6006392468544,37.59864749627295
Чертаново Южное,Учебно-спортивный центр,Gym / Fitness Center,"Кировоградская ул., 21, корп. 1, 117519",55.602173072472866,37.60346144644998
Чертаново Южное,Inferno Fitness,Gym,"Россошанский проезд,5",55.600865969514295,37.60919385248664
Чертаново Южное,"Клуб единоборств ""Файтер""",Martial Arts Dojo,"Кировоградская ул., 21, корп. 1",55.601994117052186,37.60325514489266
Бирюлёво Восточное,"Спортзал ""Гвардеец""",Gym / Fitness Center,"ул. Ряжская, 13 стр. 1",55.59027877372675,37.67023420777528
Солнцево,СССР,Gym / Fitness Center,"Производственная ул., 2 (Попутная ул.), 119619",55.6505301328312,37.38812377473104
Тёплый Стан,Самбо-70,Martial Arts Dojo,"ул. Академика Виноградова, 4Б, 117133",55.63245463055864,37.47752158649715
Тёплый Стан,Come On Gym,Gym / Fitness Center,"ул. Академика Варги, 8, корп. 1",55.63034682877882,37.473862362527385
Чертаново Центральное,Фитнес Парк,Gym,Улица Красного Маяка 22 к 5,55.611307411045644,37.57642271778987
Чертаново Центральное,Империя Фитнеса,Gym,"ул. Чертановская, 45а к1",55.607609824390366,37.592599155272545
Чертаново Центральное,Сеть батутных центров Атмосфера,Gym / Fitness Center,117519,55.608895,37.607408
Чертаново Центральное,Raketa Fitness,Gym / Fitness Center,"ТРЦ «Columbus» (ул. Красного Маяка, 2Б), 117519",55.61072269298985,37.60806877915977
Чертаново Южное,Территория фитнеса,Gym / Fitness Center,"ул. Подольских Курсантов, 10",55.60830586836813,37.61610656303756
Коньково,Sparta,Gym,"ул. Островитянова, 34, корп. 1, стр. 1",55.631486054578104,37.52354505614401
Коньково,Brutal Gym,Gym,"Островитянова, 32, стр. 1",55.63176075931585,37.5240710824324
Чертаново Центральное,Теннисный Корт На Территории Школы № 25,Gym,"Университетский, 7",55.61764851982481,37.58499288798411
Чертаново Центральное,Спортзал,Gym,"Школа № 556 (Днепропетровская ул., 33а)",55.61769040028743,37.58567287559175
Чертаново Центральное,Force Factory,Gym / Fitness Center,"Варшавское ш., 129, корп. 2",55.612641834309606,37.61209872414185
Чертаново Центральное,Спортзал МТС,Gym / Fitness Center,"1-й Дорожный пр-д, 3а",55.61530681899164,37.61712469120839
Коньково,Союз Спорт,Gym / Fitness Center,"ул., Академика Волгина, 33А, город Москва",55.64254378175244,37.506134515777866
Коньково,Самбо-70,Martial Arts Dojo,"ул. Академика Арцимовича, 13, город Москва, 117437, город Москва",55.64058370967353,37.51054402197481
Коньково,Energym Fitness Studio,Gym,Профсоюзная 103,55.635357007230176,37.52653628813746
Орехово-Борисово Южное,Фитнес Клуб Вымпел,Gym / Fitness Center,"Каширское ш., 144, корп. 2",55.59658991007165,37.72289678619024
Орехово-Борисово Южное,Фитнес Профи,Gym / Fitness Center,На терр. 16 автобусного парка. Каширское шоссе,55.598571611000565,37.72695322422652
Тропарёво-Никулино,Aster женский спортивный клуб,Gym / Fitness Center,Россия,55.65082656417361,37.46927245288275
Тропарёво-Никулино,СССР,Gym / Fitness Center,"Ленинский просп., 158",55.65065754052618,37.482700899328506
Тропарёво-Никулино,Фитнес Клуб Спорт-лэнд,Gym,Гостиница Салют,55.65148098059237,37.48389287805673
Коньково,Fitness Time,Gym / Fitness Center,город Москва,55.64353058053568,37.511780305507216
Коньково,Фитнес Тайм,Gym / Fitness Center,"Арцимовича, 8",55.64343883733302,37.511108681083854
Коньково,Gym-Gym,Gym,117279,55.64174242685663,37.52462300086192
Коньково,Йога-станция Агапкин,Yoga Studio,"ул. Миклухо-Маклая, д.34",55.63950582625017,37.532147023913225
Коньково,Спортклуб Гигант,Gym,"Миклухо-маклая Д.55, город Москва",55.642523514374936,37.528076157244
Коньково,Rocky Boxing Club,Gym / Fitness Center,Миклухо-маклая 34,55.63920996368768,37.531985758709155
Орехово-Борисово Южное,Европа Фитнес,Gym / Fitness Center,"Домодедовская ул., 28",55.60523539509568,37.712616077059046
Солнцево,Качалочка Для Культиков,Gym,"Улица Матросова, Дом 7/3",55.663461,37.419539
Тропарёво-Никулино,Point Fitness,Gym / Fitness Center,"Пр. Вернадского, 92 (ЖК Корона)",55.65538218290388,37.474252199055314
Тропарёво-Никулино,Alex Fitness,Gym / Fitness Center,"ул. 26 Бакинских Комиссаров, 7, корп. 6",55.654824561987546,37.48511359630761
Коньково,Body Ideal,Gym / Fitness Center,Миклухо-Маклая 37,55.646065819599244,37.520893329584105
Коньково,Балет,Gym / Fitness Center,"Профсюзная, 96",55.647522077792395,37.52860358361527
Царицыно,Подвал,Gym,Севанская,55.62179203729214,37.65747227119053
Орехово-Борисово Северное,Фитнес-клуб Фитпрана,Gym,"Шипиловский проезд 43 корп.5, город Москва",55.61063641823318,37.69947408730543
Орехово-Борисово Южное,СпортЛэнд,Gym,"Ясеневая ул., 26 (Елецкая ул.), 115583",55.604074792410536,37.73576653690079
Орехово-Борисово Южное,Sportland,Gym,"Ясеневая ул., 26",55.60420454017692,37.73554653325686
Тропарёво-Никулино,"ФОК ""Семья""",Gym,"ул. Покрышкина, 3, корп. 3, 119602",55.66326131211081,37.4704953994396
Тропарёво-Никулино,"Центр единоборств ""Белый Лотос""",Martial Arts Dojo,26 Бакинских комиссаров,55.658874184843036,37.487430352886456
Тропарёво-Никулино,Федерация йоги,Yoga Studio,"ул. 26 Бакинских Комиссаров, 12, корп. 2, 119526",55.66041816831329,37.489277914762894
Тропарёво-Никулино,Фитнес-мания,Gym / Fitness Center,"Ленинский просп., 146, 119526",55.65778675157161,37.49839782714843
Коньково,Bikram Hot Yoga Moscow South-West,Yoga Studio,"ул. Бутлерова 17б, 117342",55.64760574769653,37.540578264699796
Коньково,Тренажерный зал,Gym,"ул. Введенского, 1",55.64818196755277,37.54917173734836
Орехово-Борисово Южное,ФОК «Русь»,Gym / Fitness Center,"Елецкая улица, 17/3",55.60767223108356,37.73638276800235
Орехово-Борисово Южное,SportLand (СпортЛэнд),Gym / Fitness Center,"Гурьевский пр., 25, корп. 1, 115597",55.608343823879785,37.75514718663437
Очаково-Матвеевское,Reebok Crossfit Stolitsa,Gym,Москва,55.67102223979558,37.43905221700066
Тропарёво-Никулино,Атланта,Gym / Fitness Center,"ул. Покрышкина, 8с1, 119602",55.66526579314337,37.47025052608972
Тропарёво-Никулино,"Спортивный Центр ""I-JUMP""",Gym / Fitness Center,"Ул. Академика Анохина, д.8, кор.1",55.667636655404785,37.47403958243042
Тропарёво-Никулино,Spirit Fitness,Gym / Fitness Center,"ТРЦ Avenue SouthWest, 119571",55.66281954845519,37.481496930131264
Тропарёво-Никулино,Скалодром МГУТХТ,Climbing Gym,Проспект Вернадского 86,55.66279081069647,37.47918035735592
Коньково,Фитнес-центр «Остров»,Gym / Fitness Center,"ул. Обручева, 30",55.65620585578078,37.52744997793665
Зюзино,Spirit Fitness,Gym / Fitness Center,"16А Балаклавский проспект (Чертановская ул.), 117452",55.64205548267461,37.603688856130255
Царицыно,Dorfit,Gym / Fitness Center,"Кавказский бульвар, 26",55.62897636976233,37.659111055235094
Царицыно,Вымпел,Gym,"Кавказский бул., 25",55.62999439365372,37.66754720150436
Орехово-Борисово Северное,Aqua Юна Life,Gym / Fitness Center,"Каширское шоссе д.61 корп. 3а, 115563",55.616634039302255,37.71579883163263
Очаково-Матвеевское,УГУАНЬ ИЛИЦЮАНЬ.,Martial Arts Dojo,Россия,55.6740703384347,37.442084638876075
Тропарёво-Никулино,World Class,Gym / Fitness Center,"проспект Вернадского, д.101, корп. 3, 119526",55.665873956710406,37.486649751663215
Зюзино,Спорт Зал Пифка,Gym,Россия,55.647086,37.584282
Зюзино,Кимберли,Gym / Fitness Center,"Азовская ул., 24 (Черноморский бул.), 117303",55.646669134299536,37.59710920562559
Зюзино,Фитнес Амазония,Gym / Fitness Center,"улица Азовская, 24, Корп. 3, 117452",55.64785601680104,37.59608600923585
Царицыно,L'Atletica,Gym / Fitness Center,"Пролетарский просп., 20, 115477",55.63376821718997,37.65759766388232
Орехово-Борисово Северное,Alfa Fitness (Альфа Фитнес),Gym / Fitness Center,"Каширское ш., 80 (ул. Маршала Захарова)",55.62462735773502,37.70983143942638
Орехово-Борисово Северное,World Class,Gym / Fitness Center,"Каширское шоссе, д.61 cтр.2, 115563",55.62124772445834,37.71330893896037
Зябликово,Спортлэнд,Gym,"Ореховый пр-д., 35, корп. 2, 115573",55.61848953961513,37.734926497934325
Зябликово,Force Factory,Gym / Fitness Center,"ул. Мусы Джалиля, 31, корп. 1",55.6157088476231,37.7457093541956
Очаково-Матвеевское,Элис Фитнес,Gym / Fitness Center,119361,55.67964381068136,37.44738598343919
Тропарёво-Никулино,Олимпиец,Gym,"ул. Коштоянца, 20",55.67503151035612,37.47673164830116
Тропарёво-Никулино,Зал вольной борьбы,Gym,"Мичуринский пр-т, Олимпийская Деревня, д. 2",55.67576800767429,37.47409429438793
Тропарёво-Никулино,Kristian Cestaro Brazillian Jiu Jitsu Academy,Martial Arts Dojo,Коштаянца Д20/3,55.67550314359846,37.477274840643524
Зюзино,Baza Fitness Club,Gym / Fitness Center,"Малая Юшуньская 3, 117303",55.654206997321864,37.59114917891619
Зюзино,K-Gym,Gym / Fitness Center,"Малая Юшуньская, д.1, корп.2, 117303, город Москва",55.65360275305501,37.59358980887807
Зябликово,Olimpic Fitness / БК Спарта,Gym / Fitness Center,"Шипиловская ул., 58/1, 115580",55.62133214822716,37.74562678322544
Очаково-Матвеевское,Йога Машенька,Yoga Studio,Большая Очаковская 28,55.681324395208044,37.45273573288724
Зябликово,Адреналин,Gym,"ул. Мусы Джалиля, 4А",55.62924540951617,37.74162315006182
Очаково-Матвеевское,"Качалка, Академия ФСБ",Gym,"Мичуринский просп., 70, город Москва, город Москва",55.684263562996605,37.47253060340881
Зюзино,"Фитнес ""Феромон""",Gym / Fitness Center,"Азовская ул., 18",55.65957020138985,37.60405352782778
Марьино,Open Air Gym At Mar'insky Park,Gym,Россия,55.64182876879265,37.70540393194798
Марьино,Академия Спорта,Gym / Fitness Center,Новочеркасский бульвар,55.64669447173064,37.71495597713367
Можайский,Фитнесс клуб С.С.С.Р,Gym,"Можайское шоссе, Стр.166Б",55.71614204015617,37.38425504678004
Можайский,СК Лидер,Martial Arts Dojo,"ул. Барвихинская, 8/2",55.71659967329099,37.38859166161557
Марьино,Miss Fitness,Gym / Fitness Center,"Новочеркасский бул., 44, 109144",55.64606388856174,37.7376315200105
Марьино,FitEnergy,Gym / Fitness Center,"Новочеркасский бул., 57, корп. 2",55.647675048380535,37.74284569992387
Марьино,Олимп,Gym / Fitness Center,"Луговой пр-д, 12",55.64635874972982,37.753548601259546
Можайский,СССР Фитнес Верейская Premium,Gym / Fitness Center,"Верейская, д.29 стр 134, 121357",55.70953123265296,37.44222453852628
Очаково-Матвеевское,Strong,Gym / Fitness Center,"Нежинская ул., 17, корп. 2",55.706844502066794,37.467160380365684
Очаково-Матвеевское,FitCurves,Climbing Gym,Нежинская 17/2,55.70683823386585,37.46742557724284
Марьино,Акробат,Gymnastics Gym,"ул. Перерва, 19, стр. 1",55.6554778859233,37.730998168265316
Марьино,Maxima Fitnes,Gym,"ул. Перерва, 50, корп. 1",55.6531004870705,37.73850732240607
Марьино,Alex Fitness,Gym / Fitness Center,"Люблинская ул., 169, корп. 2",55.64914255840618,37.745053530842405
Можайский,Зебра,Gym / Fitness Center,"ул. Толбухина, 10, корп. 3, 121354",55.72147051250649,37.40280253631305
Можайский,"Центр Единоборств ""Крылья Советов""",Martial Arts Dojo,"Кубинка, 7",55.719546028932285,37.4075294204669
Можайский,X-Fit,Gym / Fitness Center,"ул. Кутузова, 11, стр. 2",55.72363885908271,37.411587770368904
Можайский,Fit-Studio,Gym,"Улица Гришина, дом 5, 121354",55.72115549681671,37.415942295744784
Можайский,Империя фитнеса,Gym,Гришина,55.72130834029557,37.41893887920807
Можайский,Спорт Спорт Спорт,Gym,Россия,55.71784975963261,37.434500475157684
Очаково-Матвеевское,Dancera,Yoga Studio,Веерная 30 К.2,55.70986385628912,37.47712900725717
Нагатинский Затон,Фитнес ТАЙМ,Gym,"Проспект Андропова, 37",55.67310056167363,37.66414497661489
Марьино,Альфа-Будо,Martial Arts Dojo,Люблинская,55.65387336715684,37.74449591799499
Марьино,X-Fit,Gym / Fitness Center,"Братиславская ул., 30",55.65223833896886,37.76729179279766
Марьино,Raketa Mari,Gym / Fitness Center,"Поречная ул. 10, 109469",55.64930890007224,37.77008436472853
Нагатинский Затон,СпортЛэнд,Gym / Fitness Center,"Кленовый бул., 23 (Коломенская ул.)",55.675810895776884,37.6823056229312
Марьино,СпортЛэнд,Gym / Fitness Center,"Люблинская ул., 153, 109382",55.65883,37.741654
Марьино,Zebra Fitness,Gym / Fitness Center,"ТЦ «БУМ» (ул. Перерва, 43, корп. 1)",55.65929024291602,37.74855810270286
Марьино,"Центр йоги и массажа ""Vita""",Yoga Studio,"Братиславская ул., 18, корп. 1",55.656582362929875,37.760183590710795
Марьино,FRESH Fitness Club,Gym,"Братиславская ул., 22",55.6557877382253,37.76220973301305
Марьино,Тонус Клуб (Фитнес для женщин),Gym / Fitness Center,"ул. Братиславская, 18, к. 1",55.6583756378032,37.75977623584042
Можайский,N-Ergo,Gym / Fitness Center,"Можайское ш., 2 (Рублёвское ш.), 121374",55.725848700397094,37.446356946290216
Можайский,Lakshmi Studio,Yoga Studio,"Можайское ш., 2",55.724436820067645,37.44780992827524
Марьино,Территория фитнеса,Gym / Fitness Center,"Перервинский бул., 4, корп. 1",55.66203783941178,37.76452660560608
Марьино,"Фитнес-клуб & салон красоты ""БиоАльянс""",Gym,"г. Москва, ул. Марьинский парк, д. 9, к. 2",55.65870283927085,37.77707856424567
Кунцево,Gym,Gym,город Москва,55.733787613979864,37.40596521416007
Кунцево,GYMS.MOSCOW,Gym / Fitness Center,Ул. партизанская 10,55.732351806209095,37.41243668372253
Кунцево,Combat Moscow,Martial Arts Dojo,"Молодогвардейская ул., 15",55.733543873407896,37.42781144850621
Кунцево,World Class,Gym / Fitness Center,"улица Ивана Франко, д.16, 121351",55.72826248028597,37.438367720300405
Кунцево,Атлас,Gym,"Ивана Франко 14, город Москва",55.72868700783915,37.44042581398972
Кунцево,World Class,Gym / Fitness Center,"улица Ярцевская, д.19 (Ярцевская ул., 19), 121552",55.73859127721825,37.411004499999926
Кунцево,EMS-FITNESS STUDIO,Gym / Fitness Center,Истринская 8/3,55.735533,37.432509
Нагатинский Затон,Прадна Фитнес,Gym / Fitness Center,Судостроительная 41,55.684925900972175,37.687304904601724
Нагатинский Затон,Треугольник Камней,Yoga Studio,"коломенская набережная, город Москва",55.683770296855535,37.70858925285716
Кунцево,Теннисный Центр В Жуковке,Gym,Россия,55.753292497109044,37.36929313512568
Нагатинский Затон,Power Pack Gym,Gym,город Москва,55.68823171286143,37.69548042205188
Люблино,Pole Dance Club,Gymnastics Gym,Краснодонская 19с2,55.68016833449118,37.75028352822361
Люблино,Стрелец,Gym,Россия,55.68019973063112,37.757694901822354
Люблино,Империя Фитнеса,Gym,"Спортивный Проезд, 5",55.68337493635821,37.7543807302325
Кузьминки,Спортивная площадка в ПКиО Кузьминки,Gym,ПКиО Кузьминки,55.69301855923647,37.76289975571552
Выхино-Жулебино,"Фитнес Клуб ""Спортленд""",Gym,Ул. Генерала Кузнецова,55.67845097240778,37.85329189739328
Выхино-Жулебино,Спортлэнд,Gym / Fitness Center,"БЦ «Жулебино» (Привольная ул., 70), город Москва",55.678539592116365,37.853619379531686
Кузьминки,Фитнес Лэнд,Gym / Fitness Center,"Волжский бул., 114/а",55.70665328357993,37.74755593950375
Кузьминки,"Фитнес клуб ""Да Винчи""",Gym / Fitness Center,"Кузьминский Парк, 109472",55.698659262461824,37.76748386694786
Кузьминки,СпортЛэнд,Gym / Fitness Center,"Волгоградский просп., 152, корп. 1 (ул. Академика Скрябина)",55.69944624318716,37.77966565943172
Выхино-Жулебино,С-Лакс,Gym / Fitness Center,"Привольная, 57/1",55.68318341315223,37.844746993237685
Кузьминки,СДЮСШОР № 64 / СК «Есенинский»,Martial Arts Dojo,"Есенинский бул., 9, корп. 2",55.70161086541703,37.780206560932214
Хорошёво-Мнёвники,Серебряный Бор Workout Station,Outdoor Gym,Россия,55.77839932258443,37.406483844228944
Выхино-Жулебино,Фитнес Клуб «Леон»,Gym / Fitness Center,"ул. Маршала Полубоярова, 9/68",55.688276315760156,37.864611616959365
Хорошёво-Мнёвники,FIT-N-GO,Gym,Россия,55.773547834815815,37.47225806137475
Хорошёво-Мнёвники,World Class LITE,Gym / Fitness Center,"улица Демьяна Бедного, д.4 корп. 2 (Карамышевская наб.), 123308",55.77006333635544,37.48982406836766
Выхино-Жулебино,WeGym,Gym / Fitness Center,"Ферганская ул., 6, корп. 2",55.70999355257428,37.802865772178784
Выхино-Жулебино,Турники,Outdoor Gym,"Пронская, 109145",55.70240952812662,37.84561625174752
Строгино,Molla fitness,Gym / Fitness Center,"Твардовского, д.12",55.79432939463896,37.39719085534738
Строгино,Кардио Зона NeoFit строгино,Gym,Исаковского 33,55.79572803109145,37.40776626482876
Хорошёво-Мнёвники,else club fitness & spa haute couture,Gym / Fitness Center,Россия,55.784896169565286,37.46370614799314
Хорошёво-Мнёвники,Школа боевых искусств Дмитрия Носова,Martial Arts Dojo,"Новохорошевский пр., 24, корп. 2",55.779019799434735,37.49196742494602
Хорошёво-Мнёвники,Фитнес Клуб G8 на Полежаевской,Gym / Fitness Center,"проспект Маршала Жукова, 4 строение 1",55.7764657656604,37.50052789777752
Строгино,World Class,Gym / Fitness Center,"улица Кулакова, д.20, корп. 1, 123592",55.8030663,37.3895189
Хорошёво-Мнёвники,Vitasport,Gym / Fitness Center,"Живописная ул., 21, корп. 2",55.79024421046821,37.44948063993253
Хорошёво-Мнёвники,Энигма,Gym / Fitness Center,"Живописная ул., 21, стр. 2 (ул. Паршина)",55.7898917084481,37.45339396752167
Хорошёво-Мнёвники,Enigma Fitness,Gym / Fitness Center,"Живописная, 21с1",55.78984064465406,37.453572803320505
Хорошёво-Мнёвники,Титан,Gym / Fitness Center,"Живописная ул., 30, корп. 2",55.790892836538546,37.45549632185625
Хорошёво-Мнёвники,"Секция Бокса ""Первая Перчатка""",Boxing Gym,"Живописная улица, 21 с4",55.7923352132872,37.449933407313225
Хорошёво-Мнёвники,Сити-Го-Сан,Martial Arts Dojo,"ул. Берзарина, 23",55.7876627496144,37.47329213397771
Хорошёво-Мнёвники,Торион,Gym / Fitness Center,Тухачевского 32к2,55.78682000132318,37.471558017423746
Хорошёво-Мнёвники,"Фитнес ""Северо-Запад""",Gym / Fitness Center,"улица Берзарина, дом 19, корпус 1",55.78742111674733,37.47732489069785
Вешняки,Y-15 fitness,Gym / Fitness Center,"улица Юности 15, 111395",55.7244780579741,37.80053761190228
Строгино,Фитнес-клуб «Янтарь»,Gym / Fitness Center,"ул. Маршала Катукова, 26, 123592",55.80118448622854,37.4148416519165
Бибирево,Majestick Pole Dance,Pilates Studio,"Алтуфьевское ш., 102Б, 127349",55.90380025658077,37.591024078557524
Бибирево,Платинум-фитнес,Gym,Россия,55.897746726177,37.61142947048319
Бибирево,Тренажерный зал УОР им. Гомельского,Gym,Белозерская 14,55.89515564937382,37.617041046728936
Северное Медведково,СК Иван,Martial Arts Dojo,"Ул.Широкая, д.1, кор.5",55.89115378084622,37.65244325461767
Северное Медведково,Спортивный клуб Иван,Gym,"Широкая ул, д.1 к.5",55.89127100035085,37.6520213484764
Северное Медведково,Фитнес&Spa Зебра,Gym,"ул. Широкая, д. 30, 127224",55.88592211070957,37.678540081178454
Южное Бутово,Бокс От Каптушки,Gym,Москва,55.53602428730357,37.55735930340713
Выхино-Жулебино,"МУ ""Истоки""",Gym,"Ул. Ташкентская, 33 к. 2",55.69470923076237,37.80445373461336
Строгино,NeoFit,Gym / Fitness Center,"ул. Исаковского, 33",55.80484798719064,37.41922438707945
Хорошёво-Мнёвники,FightZona,Martial Arts Dojo,3-я Хорошевская 12,55.787627789283455,37.49950591846144
Вешняки,ФОК Вешняки,Gym,"ул. Косинская, 12б",55.724695769016066,37.83390289678519
Перово,"Московский клуб самообороны ""ВИТЯЗЬ""",Martial Arts Dojo,"ул. Перовская, 1",55.749223252998476,37.75238115393497
Перово,Фитнес-центр «Карибия»,Gym / Fitness Center,"Аквапарк «Карибия» (Зеленый просп., 10б)",55.74821273484466,37.77835792712757
Вешняки,Фитнес клуб «Ок»,Gym / Fitness Center,"Вешняковская ул., 12 Б, стр. 1",55.73615684477636,37.82157447600535
Вешняки,FitLife,Gym / Fitness Center,Россия,55.7380379895337,37.83498362538912
Митино,Yellow Sun,Gym / Fitness Center,"м. Митино, пер. Волоцкой д.7 стр.1",55.8337130955073,37.34991169646619
Митино,"Спорт Зал ""Корона""",Gym,"Ул Ген. Белобородова 16к1, город Москва",55.834873362632344,37.355515794259844
Митино,Фортуна,Gym,Митино,55.83442669370991,37.35404825889496
Перово,WeGym,Gym / Fitness Center,"1-й пр. Перова поля, 9",55.750430119461356,37.77135888979343
Перово,СОЮЗ CrossFit,Gym / Fitness Center,Москва,55.75246313280121,37.772889497301655
Вешняки,Ссср Реутовская,Gym / Fitness Center,"Реутовская 3, 111539",55.74234084857951,37.83482685733456
Вешняки,Фит Лайф,Gym / Fitness Center,Реутовская д 10,55.73806125660426,37.83499971152121
Перово,Бассейн Луч,Gym / Fitness Center,"ул. 1-я Владимирская, д. 10б",55.7584802922616,37.77135609288287
Перово,"КСК ""Луч Фитнес""",Gym / Fitness Center,Россия,55.75932049148535,37.771007203613074
Митино,Жива-студия,Yoga Studio,"Митинская ул., 12 (Цариков пер.)",55.84056881396214,37.37809567314589
Митино,Zebra Fitness and Spa,Gym,Novotushinsky Proezd,55.83909119323085,37.37871222449213
Митино,Спорт Центр Бубновского,Gym,Россия,55.837585505189104,37.389282716579935
Перово,Fitness Avenue,Gym / Fitness Center,"ш. Энтузиастов, 33а (1-я Владимирская ул.)",55.76265876992682,37.77260286770973
Перово,Fitnessavenue,Gym / Fitness Center,Россия,55.76269880945403,37.77277782871178
Митино,Yoga Practika,Yoga Studio,"Митинская ул., 12",55.84153883866804,37.37716586328906
Митино,WeGym,Gym,"улица Митинская, вл. 16, 125368",55.84243307429285,37.37314783920215
Митино,Fitness Club,Gym,город Москва,55.837639108914225,37.389432444935295
Митино,Семейный клуб «СемьЯ»,Gym / Fitness Center,"Ангелов пер., 8",55.853825414950215,37.34634098126615
Митино,World Class LITE,Gym / Fitness Center,"Пятницкое шоссе, д.29 корп. 5, 125430",55.851193,37.35991
Митино,Время спорта,Gym,"Пятницкое ш., 25, корп. 1, 125430, город Москва",55.84851301602453,37.36486096782232
Ивановское,MaxFit,Gym,Саянская,55.767881880167074,37.8306955924121
Северное Тушино,Эос,Gym / Fitness Center,"Туристская ул., 27/1",55.85615691304365,37.42004531045495
Ивановское,Зал,Gym,Россия,55.78163228524064,37.80100748403827
Ивановское,X-Line Fitness,Gym,"Ул. Челябинская, 7А",55.777097267959995,37.82620614161953
Ивановское,"Спортивный клуб ""Лайм""",Gym,"Челябинская, 7, 105568",55.77732629935139,37.82665306626135
Северное Тушино,СДЮСШОР № 101 «Тушино»,Gym,"ул. Вилиса Лациса, 20",55.86221188829155,37.41984353759985
Северное Тушино,Тренажерный Зал МАИ,Gym,"ул. Вилиса Лациса,д.16",55.86402831639305,37.42058460474834
Северное Тушино,ПерунЪ,Gym / Fitness Center,"ул. Свободы, 89, корп. 5",55.86581655976621,37.4423662958938
Гольяново,Золотой Лотос,Gym / Fitness Center,"ул. Монтажная, д.2-а, стр.1 (2-й Иртышский проезд)",55.816281472170836,37.76734828948975
Гольяново,Тренировочный Зал,Gym,Россия,55.81349759298431,37.78847768295999
Отрадное,Фитнес клуб Зебра,Gym / Fitness Center,"Алтуфьевское Шоссе, д.18а, 127562",55.85780150421701,37.58529281401537
Отрадное,"Спорткомплекс ""Отрадное""",Gym / Fitness Center,"Хачатуряна 10, город Москва",55.85772275193789,37.59392377453193
Отрадное,X-Fit,Gym / Fitness Center,"Отрадная ул., 8",55.85727844673124,37.60841257908379
Отрадное,Фитнес Тайм,Gym / Fitness Center,"Отрадная ул., 16, 127273",55.85491729868922,37.61410330485982
Отрадное,"Бойцовский Клуб ""Шторм""",Martial Arts Dojo,Россия,55.85678048091119,37.611558563951775
Гольяново,"ФОК ""Атлант""",Gym / Fitness Center,Россия,55.82141025613048,37.7971443511192
Гольяново,Зал бокса,Boxing Gym,"ул. Байкальская, 42/14",55.81711177040019,37.813049466441605
Гольяново,"ФОК ""СДЮШОР 56""",Gym / Fitness Center,Россия,55.815724453172514,37.817963923890964
Отрадное,Магнат,Gym / Fitness Center,"Алтуфьевское ш., 28",55.86464085708818,37.585308464160455
Гольяново,Power,Gym,"Алтайская 19, стр. 1а",55.82197156176883,37.82274591075824
Гольяново,Т-Стиль,Gym / Fitness Center,"ул. Алтайская, д. 33/7",55.82065689349764,37.831929706164864
Отрадное,Батутная арена Saltus Sport,Gymnastics Gym,Мусоргского д.3,55.86275515138072,37.61917731999865
Отрадное,Shark,Gym / Fitness Center,Алтуфьевское шоссе 44,55.8743583468236,37.587531344031966
Отрадное,Соло-спорт,Gym / Fitness Center,"Римского-Корсакова ул., 14",55.873131801991065,37.603791992778895
Отрадное,"Фитнес-центр ""Паллада""",Gym / Fitness Center,Юрловский пр-д д.13,55.867937802077215,37.622908382691385
Бибирево,FitCurves,Gym / Fitness Center,Алтуфьевское Шоссе 72,55.89018261321072,37.58762803244965
Бибирево,X-Fit,Gym / Fitness Center,"Алтуфьевское ш., 70, корп. 2, 127549",55.88888078920864,37.58971052803048
Бибирево,Fitness Pro,Gym / Fitness Center,"ул. Пришвина, 3г",55.889968019450464,37.59443517664951
Бибирево,Fit Curves,Gym,Пришвина,55.88867748373917,37.59880794774467
Северное Медведково,Guru Yoga,Yoga Studio,Proezd Schokalskogo 22,55.88056961426129,37.64681872376844
Бибирево,Тиан,Gym,Улица Плещеева 12,55.88874254383108,37.614558935165405
Бибирево,Училище Олимп Резерва им. Гомельского,Gym / Fitness Center,"ул. Лескова, 25а",55.89310659551775,37.621251966180274
Бибирево,Fitness Pro,Gym,"Ул. Лескова, д.32",55.89186293456151,37.61945679461422
Бибирево,Фитнес-Про,Gym / Fitness Center,"ул. Лескова, 32",55.89187851452914,37.6195600793909
Северное Медведково,Platinum Fitness,Gym / Fitness Center,"Чермянский пр., 7, 127282",55.88929738881487,37.63195395889964
