Cell_id,Cell_Latitude,Cell_Longitude,Venue_Id,Venue_Name,Venue_All_Categories,Venue_Latitude,Venue_Longitude,Venue_Location,Venue_Distance,Borough_Name,Venue_Category_Name,Venue_Category_Id
"55.54373365274886,37.52922782170013",55.54373365274886,37.52922782170013,5613e451498e1d9d14a08965,Фитнес Гуру,"[('Gym / Fitness Center', '4bf58dd8d48988d175941735')]",55.543828290275485,37.52668662554533,Ул. Адмирала Руднева д.4,160,Южное Бутово,Gym / Fitness Center,4bf58dd8d48988d175941735
"55.542029950811596,37.53800985555974",55.5420299508116,37.53800985555974,4f37b1fce4b0948a8250dc3e,Yoga Practika,"[('Yoga Studio', '4bf58dd8d48988d102941735')]",55.54155636000794,37.5361958238015,"Южнобутовская ул., д.36",125,Южное Бутово,Yoga Studio,4bf58dd8d48988d102941735
"55.542029950811596,37.53800985555974",55.5420299508116,37.53800985555974,505b277ae4b0b47e0cc0a3a6,Тонус Клуб,"[('Gym', '4bf58dd8d48988d176941735')]",55.541652319616496,37.536339938899054,"Южнобутовская, 36",113,Южное Бутово,Gym,4bf58dd8d48988d176941735
"55.533502517232726,37.58190593948645",55.533502517232726,37.581905939486454,4f3cfd23e4b02e31117621f9,ЖелезКа,"[('Gym', '4bf58dd8d48988d176941735')]",55.53358818506744,37.581014734778826,Ноао,56,Южное Бутово,Gym,4bf58dd8d48988d176941735
"55.54548993505383,37.545003825780256",55.545489935053816,37.545003825780256,4efd0213e5e8d60844e010a9,Зебра,"[('Gym / Fitness Center', '4bf58dd8d48988d175941735')]",55.54804126101387,37.54363765539306,"ТЦ «Витте Молл» (Венёвская ул., 6), 117042",296,Южное Бутово,Gym / Fitness Center,4bf58dd8d48988d175941735
"55.54894941278787,37.55199906123572",55.54894941278787,37.55199906123572,4de4db9ce4cd056f747ba618,Ангел,"[('Gym', '4bf58dd8d48988d176941735')]",55.55088580731636,37.55458482854212,Скобелевская улица дом 2,270,Южное Бутово,Gym,4bf58dd8d48988d176941735
"55.55240838386581,37.5589955621164",55.552408383865824,37.5589955621164,507c4c44e4b0bf54e3233c27,Фитнес Гуру,"[('Gym', '4bf58dd8d48988d176941735')]",55.55190278224392,37.55747065327271,Изюмская 22-3,111,Южное Бутово,Gym,4bf58dd8d48988d176941735
"55.55240838386581,37.5589955621164",55.552408383865824,37.5589955621164,4ea958f7490158681af5aea1,Спорт К,"[('Gym', '4bf58dd8d48988d176941735')]",55.55161491305736,37.55703241403508,Россия,151,Южное Бутово,Gym,4bf58dd8d48988d176941735
"55.55757283419636,37.55720999068673",55.55757283419636,37.55720999068673,5df47187775cb40008b8f56e,Фитнес-клуб Зебра ЭТАЛОН,"[('Gym / Fitness Center', '4bf58dd8d48988d175941735')]",55.55777,37.555107,"Ул. Поляны 5, 117042",134,Южное Бутово,Gym / Fitness Center,4bf58dd8d48988d175941735
"55.597134958429045,37.52711461352127",55.59713495842905,37.52711461352128,51718c6ee4b08e116164687e,Фитнес-центр «Мореон»,"[('Gym / Fitness Center', '4bf58dd8d48988d175941735')]",55.597151633539845,37.52790469437889,"Аквапарк МОРЕОН (Голубинская ул., 16), 117574",49,Ясенево,Gym / Fitness Center,4bf58dd8d48988d175941735
"55.63457352940341,37.358033274164995",55.63457352940341,37.358033274165,4d910b1b5f33b1f7c6b5657e,Family Club,"[('Gym / Fitness Center', '4bf58dd8d48988d175941735')]",55.63635870332252,37.35565066337585,"ул. Шолохова, 5 (ул. Новоорловская)",248,Ново-Переделкино,Gym / Fitness Center,4bf58dd8d48988d175941735
"55.604003684142725,37.516527586882845",55.604003684142725,37.51652758688285,50a9fcd4e4b0702a836692cd,Физкультурно-оздоровительный комплекс Ясенево,"[('Gym', '4bf58dd8d48988d176941735')]",55.60476795210455,37.51977300335089,"Вильнюсская ул., 6, к. 2, 117574",221,Ясенево,Gym,4bf58dd8d48988d176941735
"55.60229968134515,37.52532389173869",55.60229968134515,37.52532389173869,4f1d1e0ce4b05c50e44b36ae,Центр йоги и здоровья в Ясенево,"[('Yoga Studio', '4bf58dd8d48988d102941735')]",55.60319257905524,37.528975323372975,ул. Тарусская 18,250,Ясенево,Yoga Studio,4bf58dd8d48988d102941735
"55.60059508183252,37.5341192548125",55.60059508183252,37.534119254812495,4f71bfb8e4b04c3d16a11d52,"ГУП ""Час Спорта""","[('Gym', '4bf58dd8d48988d176941735')]",55.60178212527328,37.53621158326651,"ул. Паустовского, 4А, 117463",186,Ясенево,Gym,4bf58dd8d48988d176941735
"55.59718409324798,37.55170715484857",55.597184093247975,37.55170715484857,4feedb1ae4b0967097ea274e,Спортивная площадка,"[('Gym', '4bf58dd8d48988d176941735')]",55.59770600539632,37.549704804396974,усадьба Ясенево,138,Ясенево,Gym,4bf58dd8d48988d176941735
"55.58522685821461,37.61323511076633",55.585226858214604,37.61323511076633,4f0e00dee4b03544980e617b,Центр Физической Культуры И Спорта,"[('Gym', '4bf58dd8d48988d176941735')]",55.58786452086832,37.61287723093038,"Дорожная ул., 44",294,Чертаново Южное,Gym,4bf58dd8d48988d176941735
"55.58522685821461,37.61323511076633",55.585226858214604,37.61323511076633,4ed3b009f5b9832addfa8257,ФОК ул. Дорожная,"[('Gym', '4bf58dd8d48988d176941735')]",55.58781033498804,37.61295602000617,Россия,288,Чертаново Южное,Gym,4bf58dd8d48988d176941735
"55.639737794892106,37.356218049294974",55.6397377948921,37.35621804929498,540c037d498e7fb90210369b,Олимпик Фитнес,"[('Gym / Fitness Center', '4bf58dd8d48988d175941735')]",55.63996079319308,37.35631167764267,Боровское шоссе 43,25,Ново-Переделкино,Gym / Fitness Center,4bf58dd8d48988d175941735
"55.580119724134555,37.664165799376626",55.58011972413456,37.66416579937663,58332a397ff1e43c193edd56,Alex Fitness,"[('Gym / Fitness Center', '4bf58dd8d48988d175941735')]",55.57872872493286,37.66538004993381,"Михневская,4",172,Бирюлёво Восточное,Gym / Fitness Center,4bf58dd8d48988d175941735
"55.61433320022151,37.51294261777804",55.61433320022151,37.51294261777804,4d8a44fd1508a143bf1d211e,Спортлэнд,"[('Gym / Fitness Center', '4bf58dd8d48988d175941735')]",55.61474649402648,37.51404545424925,"Новоясеневский проспект, д. 3А, стр.1",83,Ясенево,Gym / Fitness Center,4bf58dd8d48988d175941735
"55.60921955035186,37.53933632818902",55.60921955035186,37.53933632818902,58a1ddeaa19e9063d2d95233,Encore Fitness,"[('Gym / Fitness Center', '4bf58dd8d48988d175941735')]",55.60907878677347,37.535668751366956,"Новоясеневский проезд, 9, 117588",231,Ясенево,Gym / Fitness Center,4bf58dd8d48988d175941735
"55.60921955035186,37.53933632818902",55.60921955035186,37.53933632818902,50a110c8e4b0ab1754e3471c,"Тренажерный зал ""Обыкновенное Чудо""","[('Gym', '4bf58dd8d48988d176941735')]",55.610262647043285,37.536388389529364,Россия,218,Ясенево,Gym,4bf58dd8d48988d176941735
"55.60068486827203,37.58330699026721",55.600684868272026,37.58330699026721,5309adf611d2276ba87a83bf,HARDCORE GYM,"[('Gym', '4bf58dd8d48988d176941735')]",55.602343188039036,37.5825396788342,"Чертановская ул., 45-а, корп. 1",190,Чертаново Южное,Gym,4bf58dd8d48988d176941735
"55.585284906145866,37.66239471986746",55.58528490614586,37.662394719867464,4d819d0e21c0b60cf1cfdd6f,"Школа дзюдо ""Юность Москвы""","[('Martial Arts Dojo', '4bf58dd8d48988d101941735')]",55.58551271000664,37.66121509626587,"Михневская ул., 5К1, 115547",78,Бирюлёво Восточное,Martial Arts Dojo,4bf58dd8d48988d101941735
"55.58357082399244,37.67117752141948",55.58357082399243,37.67117752141948,4cf3c87a6195721e90b74ec1,СДЮСШОР №47 ФОК «Южный»,"[('Gym / Fitness Center', '4bf58dd8d48988d175941735')]",55.58563386557528,37.674050331115716,"Лебедянская ул., 18, 115372",292,Бирюлёво Восточное,Gym / Fitness Center,4bf58dd8d48988d175941735
"55.65175899708831,37.34376860248078",55.65175899708831,37.343768602480786,4ec53796cc21a130730f2779,Magneto Sport&SPA,"[('Gym / Fitness Center', '4bf58dd8d48988d175941735')]",55.65219377560487,37.34808302165137,"6-я ул. Новые Сады, 2, стр. 1",275,Ново-Переделкино,Gym / Fitness Center,4bf58dd8d48988d175941735
"55.61438444279432,37.537547162921804",55.61438444279433,37.53754716292181,5051de3ee4b011f3a468bd82,"МУ ЦСиД ""Атлант""","[('Martial Arts Dojo', '4bf58dd8d48988d101941735')]",55.61332264804292,37.54219710453125,"Литовский б-р, д.11, к.2 (ул.Айвазовского)",315,Ясенево,Martial Arts Dojo,4bf58dd8d48988d101941735
"55.60584988198149,37.58152417463465",55.6058498819815,37.581524174634644,4f4b8532e4b0bd57acefa01d,"ФОК ""Красный Маяк"" МГФСО","[('Gym', '4bf58dd8d48988d176941735')]",55.606378694710905,37.58108983608283,"Ул. Красного Маяка, д.28, к.1",64,Чертаново Центральное,Gym,4bf58dd8d48988d176941735
"55.60243188375706,37.599108373864524",55.60243188375706,37.59910837386453,5194fb96498ec41a4d1b450d,Fitsolution,"[('Gym', '4bf58dd8d48988d176941735')]",55.60080020426318,37.59879880657881,"Кировоградская ул., 23а",182,Чертаново Южное,Gym,4bf58dd8d48988d176941735
"55.60243188375706,37.599108373864524",55.60243188375706,37.59910837386453,54df4b72498e81ce00aee0a2,Paris Life,"[('Gym / Fitness Center', '4bf58dd8d48988d175941735')]",55.6006392468544,37.59864749627295,"ул. Кировоградская, д. 23а",201,Чертаново Южное,Gym / Fitness Center,4bf58dd8d48988d175941735
"55.60243188375706,37.599108373864524",55.60243188375706,37.59910837386453,4dcf810e52b1f8915bb24795,Учебно-спортивный центр,"[('Gym / Fitness Center', '4bf58dd8d48988d175941735')]",55.602173072472866,37.60346144644998,"Кировоградская ул., 21, корп. 1, 117519",275,Чертаново Южное,Gym / Fitness Center,4bf58dd8d48988d175941735
"55.600721990824674,37.60789905726288",55.600721990824674,37.607899057262884,5569beda498eb57d388a9e04,Inferno Fitness,"[('Gym', '4bf58dd8d48988d176941735')]",55.600865969514295,37.60919385248664,"Россошанский проезд,5",82,Чертаново Южное,Gym,4bf58dd8d48988d176941735
"55.600721990824674,37.60789905726288",55.600721990824674,37.607899057262884,52ab8f91498eb6c1e6a7ed6c,"Клуб единоборств ""Файтер""","[('Martial Arts Dojo', '4bf58dd8d48988d101941735')]",55.601994117052186,37.60325514489266,"Кировоградская ул., 21, корп. 1",324,Чертаново Южное,Martial Arts Dojo,4bf58dd8d48988d101941735
"55.58873606935487,37.66940738730048",55.588736069354866,37.669407387300474,4e2ea0e852b111a1e37acf86,"Спортзал ""Гвардеец""","[('Gym / Fitness Center', '4bf58dd8d48988d175941735')]",55.59027877372675,37.67023420777528,"ул. Ряжская, 13 стр. 1",179,Бирюлёво Восточное,Gym / Fitness Center,4bf58dd8d48988d175941735
"55.64845471964466,37.386038016673965",55.64845471964466,37.38603801667397,5a0d9aac5f68b97a205f66d9,СССР,"[('Gym / Fitness Center', '4bf58dd8d48988d175941735')]",55.6505301328312,37.38812377473104,"Производственная ул., 2 (Попутная ул.), 119619",265,Солнцево,Gym / Fitness Center,4bf58dd8d48988d175941735
"55.631472512052675,37.47414135575309",55.63147251205268,37.47414135575309,4cc7fde4303476b0d5a7e16b,Самбо-70,"[('Martial Arts Dojo', '4bf58dd8d48988d101941735')]",55.63245463055864,37.47752158649715,"ул. Академика Виноградова, 4Б, 117133",238,Тёплый Стан,Martial Arts Dojo,4bf58dd8d48988d101941735
"55.631472512052675,37.47414135575309",55.63147251205268,37.47414135575309,5400319c498e1c9ace6278a5,Come On Gym,"[('Gym / Fitness Center', '4bf58dd8d48988d175941735')]",55.63034682877882,37.473862362527385,"ул. Академика Варги, 8, корп. 1",126,Тёплый Стан,Gym / Fitness Center,4bf58dd8d48988d175941735
"55.6110149360269,37.579741033279845",55.6110149360269,37.57974103327985,541732f5498edbe9415e7b38,Фитнес Парк,"[('Gym', '4bf58dd8d48988d176941735')]",55.611307411045644,37.57642271778987,Улица Красного Маяка 22 к 5,211,Чертаново Центральное,Gym,4bf58dd8d48988d176941735
"55.60930625877518,37.58853487454831",55.60930625877518,37.58853487454831,4ee34c1ee30005f8b6b67ab0,Империя Фитнеса,"[('Gym', '4bf58dd8d48988d176941735')]",55.607609824390366,37.592599155272545,"ул. Чертановская, 45а к1",317,Чертаново Центральное,Gym,4bf58dd8d48988d176941735
"55.60588711604922,37.606119724131894",55.605887116049225,37.60611972413189,5a51f17e17556220de0f94a6,Сеть батутных центров Атмосфера,"[('Gym / Fitness Center', '4bf58dd8d48988d175941735')]",55.608895,37.607408,117519,344,Чертаново Центральное,Gym / Fitness Center,4bf58dd8d48988d175941735
"55.61105228174984,37.60434006636954",55.61105228174984,37.60434006636954,582ae225b148847dad257dd8,Raketa Fitness,"[('Gym / Fitness Center', '4bf58dd8d48988d175941735')]",55.61072269298985,37.60806877915977,"ТРЦ «Columbus» (ул. Красного Маяка, 2Б), 117519",237,Чертаново Центральное,Gym / Fitness Center,4bf58dd8d48988d175941735
"55.60934184005894,37.61313234366536",55.60934184005894,37.61313234366536,4ea6d52ee5fa0cc4c3d023b7,Территория фитнеса,"[('Gym / Fitness Center', '4bf58dd8d48988d175941735')]",55.60830586836813,37.61610656303756,"ул. Подольских Курсантов, 10",219,Чертаново Южное,Gym / Fitness Center,4bf58dd8d48988d175941735
"55.631584408224434,37.523375653004955",55.63158440822443,37.52337565300496,4db3510643a1369cb5a113e7,Sparta,"[('Gym', '4bf58dd8d48988d176941735')]",55.631486054578104,37.52354505614401,"ул. Островитянова, 34, корп. 1, стр. 1",15,Коньково,Gym,4bf58dd8d48988d176941735
"55.631584408224434,37.523375653004955",55.63158440822443,37.52337565300496,4ec91ee693ad41338ec30251,Brutal Gym,"[('Gym', '4bf58dd8d48988d176941735')]",55.63176075931585,37.5240710824324,"Островитянова, 32, стр. 1",47,Коньково,Gym,4bf58dd8d48988d176941735
"55.61963653569479,37.58497015448101",55.61963653569479,37.584970154481006,4e807725b634c59a4b5b23b5,Теннисный Корт На Территории Школы № 25,"[('Gym', '4bf58dd8d48988d176941735')]",55.61764851982481,37.58499288798411,"Университетский, 7",221,Чертаново Центральное,Gym,4bf58dd8d48988d176941735
"55.61963653569479,37.58497015448101",55.61963653569479,37.584970154481006,4f5ef249e4b0912b83b188aa,Спортзал,"[('Gym', '4bf58dd8d48988d176941735')]",55.61769040028743,37.58567287559175,"Школа № 556 (Днепропетровская ул., 33а)",221,Чертаново Центральное,Gym,4bf58dd8d48988d176941735
"55.61450706975823,37.61135363086987",55.614507069758226,37.61135363086985,4de65edf7d8b53987c5f0e8a,Force Factory,"[('Gym / Fitness Center', '4bf58dd8d48988d175941735')]",55.612641834309606,37.61209872414185,"Варшавское ш., 129, корп. 2",212,Чертаново Центральное,Gym / Fitness Center,4bf58dd8d48988d175941735
"55.6127960556377,37.620146232654896",55.6127960556377,37.6201462326549,512def10e4b0011fa085b9c3,Спортзал МТС,"[('Gym / Fitness Center', '4bf58dd8d48988d175941735')]",55.61530681899164,37.61712469120839,"1-й Дорожный пр-д, 3а",337,Чертаново Центральное,Gym / Fitness Center,4bf58dd8d48988d175941735
"55.640157688757895,37.50397443503616",55.640157688757895,37.503974435036156,4cec2053595cb1f740f3dc14,Союз Спорт,"[('Gym / Fitness Center', '4bf58dd8d48988d175941735')]",55.64254378175244,37.506134515777866,"ул., Академика Волгина, 33А, город Москва",298,Коньково,Gym / Fitness Center,4bf58dd8d48988d175941735
"55.63845386119778,37.51277964063788",55.638453861197775,37.51277964063788,4e943c24f5b95fb5b08fc227,Самбо-70,"[('Martial Arts Dojo', '4bf58dd8d48988d101941735')]",55.64058370967353,37.51054402197481,"ул. Академика Арцимовича, 13, город Москва, 117437, город Москва",275,Коньково,Martial Arts Dojo,4bf58dd8d48988d101941735
"55.63674943590475,37.52158390280661",55.636749435904754,37.52158390280661,54468f86498e01e636407689,Energym Fitness Studio,"[('Gym', '4bf58dd8d48988d176941735')]",55.635357007230176,37.52653628813746,Профсоюзная 103,347,Коньково,Gym,4bf58dd8d48988d176941735
"55.597383017548886,37.723821105601736",55.59738301754889,37.723821105601736,4edcf116d3e346be37564e70,Фитнес Клуб Вымпел,"[('Gym / Fitness Center', '4bf58dd8d48988d175941735')]",55.59658991007165,37.72289678619024,"Каширское ш., 144, корп. 2",105,Орехово-Борисово Южное,Gym / Fitness Center,4bf58dd8d48988d175941735
"55.597383017548886,37.723821105601736",55.59738301754889,37.723821105601736,4de5043b7d8b2547eb4008e6,Фитнес Профи,"[('Gym / Fitness Center', '4bf58dd8d48988d175941735')]",55.598571611000565,37.72695322422652,На терр. 16 автобусного парка. Каширское шоссе,237,Орехово-Борисово Южное,Gym / Fitness Center,4bf58dd8d48988d175941735
"55.65213193353442,37.466944461289586",55.65213193353442,37.46694446128959,54b97412498e3c65ba886198,Aster женский спортивный клуб,"[('Gym / Fitness Center', '4bf58dd8d48988d175941735')]",55.65082656417361,37.46927245288275,Россия,206,Тропарёво-Никулино,Gym / Fitness Center,4bf58dd8d48988d175941735
"55.64872851641093,37.48456402158921",55.648728516410934,37.484564021589215,4f2080ade4b0a02157467e48,СССР,"[('Gym / Fitness Center', '4bf58dd8d48988d175941735')]",55.65065754052618,37.482700899328506,"Ленинский просп., 158",244,Тропарёво-Никулино,Gym / Fitness Center,4bf58dd8d48988d175941735
"55.64872851641093,37.48456402158921",55.648728516410934,37.484564021589215,4d7f7df6dd4a6ea879887b25,Фитнес Клуб Спорт-лэнд,"[('Gym', '4bf58dd8d48988d176941735')]",55.65148098059237,37.48389287805673,Гостиница Салют,309,Тропарёво-Никулино,Gym,4bf58dd8d48988d176941735
"55.643618903703164,37.51098628837435",55.643618903703185,37.510986288374355,4e76ec6f1f6e072f145299f6,Fitness Time,"[('Gym / Fitness Center', '4bf58dd8d48988d175941735')]",55.64353058053568,37.511780305507216,город Москва,50,Коньково,Gym / Fitness Center,4bf58dd8d48988d175941735
"55.643618903703164,37.51098628837435",55.643618903703185,37.510986288374355,4e5bde80d4c0ba8c11bd71eb,Фитнес Тайм,"[('Gym / Fitness Center', '4bf58dd8d48988d175941735')]",55.64343883733302,37.511108681083854,"Арцимовича, 8",21,Коньково,Gym / Fitness Center,4bf58dd8d48988d175941735
"55.6419145035146,37.51979182355446",55.64191450351461,37.519791823554456,5ae35f34916bc1002c82b1b5,Gym-Gym,"[('Gym', '4bf58dd8d48988d176941735')]",55.64174242685663,37.52462300086192,117279,304,Коньково,Gym,4bf58dd8d48988d176941735
"55.64020950559424,37.52859641487306",55.64020950559424,37.528596414873064,4fa4342ee4b0cbe2df19870a,Йога-станция Агапкин,"[('Yoga Studio', '4bf58dd8d48988d102941735')]",55.63950582625017,37.532147023913225,"ул. Миклухо-Маклая, д.34",236,Коньково,Yoga Studio,4bf58dd8d48988d102941735
"55.64020950559424,37.52859641487306",55.64020950559424,37.528596414873064,4ec3d7b6f5b9f024dff367b0,Спортклуб Гигант,"[('Gym', '4bf58dd8d48988d176941735')]",55.642523514374936,37.528076157244,"Миклухо-маклая Д.55, город Москва",259,Коньково,Gym,4bf58dd8d48988d176941735
"55.64020950559424,37.52859641487306",55.64020950559424,37.528596414873064,55d776ce498e0297e233364b,Rocky Boxing Club,"[('Gym / Fitness Center', '4bf58dd8d48988d175941735')]",55.63920996368768,37.531985758709155,Миклухо-маклая 34,240,Коньково,Gym / Fitness Center,4bf58dd8d48988d175941735
"55.60426673331121,37.71327446205283",55.60426673331121,37.71327446205283,4ef5cb0e6da1f7b65fa5dab2,Европа Фитнес,"[('Gym / Fitness Center', '4bf58dd8d48988d175941735')]",55.60523539509568,37.712616077059046,"Домодедовская ул., 28",115,Орехово-Борисово Южное,Gym / Fitness Center,4bf58dd8d48988d175941735
"55.66579482083159,37.42107263728647",55.66579482083159,37.421072637286464,52e129a1498e29b06bd5f3f7,Качалочка Для Культиков,"[('Gym', '4bf58dd8d48988d176941735')]",55.663461,37.419539,"Улица Матросова, Дом 7/3",277,Солнцево,Gym,4bf58dd8d48988d176941735
"55.65559550447456,37.47395593482845",55.65559550447456,37.47395593482845,502d108ee4b0b025935f5df2,Point Fitness,"[('Gym / Fitness Center', '4bf58dd8d48988d175941735')]",55.65538218290388,37.474252199055314,"Пр. Вернадского, 92 (ЖК Корона)",30,Тропарёво-Никулино,Gym / Fitness Center,4bf58dd8d48988d175941735
"55.65389352242144,37.48276651791378",55.653893522421434,37.48276651791378,4f9e7c5de4b03d83ee33039e,Alex Fitness,"[('Gym / Fitness Center', '4bf58dd8d48988d175941735')]",55.654824561987546,37.48511359630761,"ул. 26 Бакинских Комиссаров, 7, корп. 6",180,Тропарёво-Никулино,Gym / Fitness Center,4bf58dd8d48988d175941735
"55.64707961103311,37.517999415056316",55.64707961103311,37.517999415056316,5319c79a498e100c15d21ead,Body Ideal,"[('Gym / Fitness Center', '4bf58dd8d48988d175941735')]",55.646065819599244,37.520893329584105,Миклухо-Маклая 37,213,Коньково,Gym / Fitness Center,4bf58dd8d48988d175941735
"55.64537463812568,37.52680527957853",55.64537463812568,37.52680527957853,4e9941227ee571e1ee831ff3,Балет,"[('Gym / Fitness Center', '4bf58dd8d48988d175941735')]",55.647522077792395,37.52860358361527,"Профсюзная, 96",264,Коньково,Gym / Fitness Center,4bf58dd8d48988d175941735
"55.61972839909248,37.65877982541019",55.619728399092466,37.65877982541019,50a2e07ae4b0cc03702d878c,Подвал,"[('Gym', '4bf58dd8d48988d176941735')]",55.62179203729214,37.65747227119053,Севанская,243,Царицыно,Gym,4bf58dd8d48988d176941735
"55.6111498519337,37.70272401486242",55.611149851933696,37.702724014862426,4e9883f42c5b827059eec59a,Фитнес-клуб Фитпрана,"[('Gym', '4bf58dd8d48988d176941735')]",55.61063641823318,37.69947408730543,"Шипиловский проезд 43 корп.5, город Москва",212,Орехово-Борисово Северное,Gym,4bf58dd8d48988d176941735
"55.60427630709954,37.7378623018816",55.60427630709954,37.7378623018816,5248f9a811d200b0046b73e9,СпортЛэнд,"[('Gym', '4bf58dd8d48988d176941735')]",55.604074792410536,37.73576653690079,"Ясеневая ул., 26 (Елецкая ул.), 115583",133,Орехово-Борисово Южное,Gym,4bf58dd8d48988d176941735
"55.60427630709954,37.7378623018816",55.60427630709954,37.7378623018816,521af30e11d27fbcf2b1ae85,Sportland,"[('Gym', '4bf58dd8d48988d176941735')]",55.60420454017692,37.73554653325686,"Ясеневая ул., 26",145,Орехово-Борисово Южное,Gym,4bf58dd8d48988d176941735
"55.66076052436087,37.47215682518531",55.66076052436087,37.472156825185316,4f6602a2e4b03c270b363134,"ФОК ""Семья""","[('Gym', '4bf58dd8d48988d176941735')]",55.66326131211081,37.4704953994396,"ул. Покрышкина, 3, корп. 3, 119602",297,Тропарёво-Никулино,Gym,4bf58dd8d48988d176941735
"55.65735601323548,37.48977959742025",55.657356013235464,37.48977959742025,58524264297c16529d7b63c1,"Центр единоборств ""Белый Лотос""","[('Martial Arts Dojo', '4bf58dd8d48988d101941735')]",55.658874184843036,37.487430352886456,26 Бакинских комиссаров,224,Тропарёво-Никулино,Martial Arts Dojo,4bf58dd8d48988d101941735
"55.65735601323548,37.48977959742025",55.657356013235464,37.48977959742025,4c978a38533aa09386d6da45,Федерация йоги,"[('Yoga Studio', '4bf58dd8d48988d102941735')]",55.66041816831329,37.489277914762894,"ул. 26 Бакинских Комиссаров, 12, корп. 2, 119526",342,Тропарёво-Никулино,Yoga Studio,4bf58dd8d48988d102941735
"55.65565285990444,37.498589568000135",55.65565285990444,37.49858956800013,4bd8749835aad13a99eb90f3,Фитнес-мания,"[('Gym / Fitness Center', '4bf58dd8d48988d175941735')]",55.65778675157161,37.49839782714843,"Ленинский просп., 146, 119526",237,Тропарёво-Никулино,Gym / Fitness Center,4bf58dd8d48988d175941735
"55.64712812143617,37.5426252578112",55.647128121436175,37.5426252578112,55deafcb498e1e9478895cf2,Bikram Hot Yoga Moscow South-West,"[('Yoga Studio', '4bf58dd8d48988d102941735')]",55.64760574769653,37.540578264699796,"ул. Бутлерова 17б, 117342",139,Коньково,Yoga Studio,4bf58dd8d48988d102941735
"55.6454213804076,37.55142956180924",55.6454213804076,37.55142956180924,529ca97511d2568f6c644b93,Тренажерный зал,"[('Gym', '4bf58dd8d48988d176941735')]",55.64818196755277,37.54917173734836,"ул. Введенского, 1",338,Коньково,Gym,4bf58dd8d48988d176941735
"55.60944203757728,37.736101333516054",55.60944203757729,37.73610133351605,4e7c67478998832e2f5fd1d7,ФОК «Русь»,"[('Gym / Fitness Center', '4bf58dd8d48988d175941735')]",55.60767223108356,37.73638276800235,"Елецкая улица, 17/3",197,Орехово-Борисово Южное,Gym / Fitness Center,4bf58dd8d48988d175941735
"55.606001742093824,37.7536673198387",55.606001742093824,37.75366731983871,4f3424a6e4b04ffdc5bfec03,SportLand (СпортЛэнд),"[('Gym / Fitness Center', '4bf58dd8d48988d175941735')]",55.608343823879785,37.75514718663437,"Гурьевский пр., 25, корп. 1, 115597",276,Орехово-Борисово Южное,Gym / Fitness Center,4bf58dd8d48988d175941735
"55.671027781064645,37.44391232348097",55.671027781064645,37.443912323480966,4ffce45de4b0184d35962ef0,Reebok Crossfit Stolitsa,"[('Gym', '4bf58dd8d48988d176941735')]",55.67102223979558,37.43905221700066,Москва,305,Очаково-Матвеевское,Gym,4bf58dd8d48988d176941735
"55.66592558384319,37.4703573837655",55.66592558384318,37.4703573837655,4e2af3f218a80bb05853469d,Атланта,"[('Gym / Fitness Center', '4bf58dd8d48988d175941735')]",55.66526579314337,37.47025052608972,"ул. Покрышкина, 8с1, 119602",73,Тропарёво-Никулино,Gym / Fitness Center,4bf58dd8d48988d175941735
"55.66592558384319,37.4703573837655",55.66592558384318,37.4703573837655,527f4f2011d214914cda1e8b,"Спортивный Центр ""I-JUMP""","[('Gym / Fitness Center', '4bf58dd8d48988d175941735')]",55.667636655404785,37.47403958243042,"Ул. Академика Анохина, д.8, кор.1",299,Тропарёво-Никулино,Gym / Fitness Center,4bf58dd8d48988d175941735
"55.66422365343524,37.479170516907445",55.664223653435236,37.47917051690745,59c4f9cea5a315336ab7f43f,Spirit Fitness,"[('Gym / Fitness Center', '4bf58dd8d48988d175941735')]",55.66281954845519,37.481496930131264,"ТРЦ Avenue SouthWest, 119571",213,Тропарёво-Никулино,Gym / Fitness Center,4bf58dd8d48988d175941735
"55.66422365343524,37.479170516907445",55.664223653435236,37.47917051690745,4e678c887d8b084ac75fce59,Скалодром МГУТХТ,"[('Climbing Gym', '503289d391d4c4b30a586d6a')]",55.66279081069647,37.47918035735592,Проспект Вернадского 86,159,Тропарёво-Никулино,Climbing Gym,503289d391d4c4b30a586d6a
"55.655705022993004,37.52322202176868",55.65570502299301,37.52322202176868,4d31dafd9c2d59415e5936d8,Фитнес-центр «Остров»,"[('Gym / Fitness Center', '4bf58dd8d48988d175941735')]",55.65620585578078,37.52744997793665,"ул. Обручева, 30",271,Коньково,Gym / Fitness Center,4bf58dd8d48988d175941735
"55.6403338251637,37.60245519432621",55.64033382516371,37.60245519432621,5a4be08e09e283441f033166,Spirit Fitness,"[('Gym / Fitness Center', '4bf58dd8d48988d175941735')]",55.64205548267461,37.603688856130255,"16А Балаклавский проспект (Чертановская ул.), 117452",206,Зюзино,Gym / Fitness Center,4bf58dd8d48988d175941735
"55.6300595018678,37.65523472608536",55.6300595018678,37.65523472608536,55f859e4498ea52d31452a5f,Dorfit,"[('Gym / Fitness Center', '4bf58dd8d48988d175941735')]",55.62897636976233,37.659111055235094,"Кавказский бульвар, 26",271,Царицыно,Gym / Fitness Center,4bf58dd8d48988d175941735
"55.62834502843594,37.66402799912536",55.62834502843594,37.66402799912536,4e8dbf1093adeeb4cdb89974,Вымпел,"[('Gym', '4bf58dd8d48988d176941735')]",55.62999439365372,37.66754720150436,"Кавказский бул., 25",287,Царицыно,Gym,4bf58dd8d48988d176941735
"55.61804568394549,37.716767726621796",55.6180456839455,37.716767726621796,5896d4a9af5c1416e00c1942,Aqua Юна Life,"[('Gym / Fitness Center', '4bf58dd8d48988d175941735')]",55.616634039302255,37.71579883163263,"Каширское шоссе д.61 корп. 3а, 115563",168,Орехово-Борисово Северное,Gym / Fitness Center,4bf58dd8d48988d175941735
"55.6761928015346,37.44210872165726",55.676192801534604,37.442108721657256,5255126711d20d016ce5ae2e,УГУАНЬ ИЛИЦЮАНЬ.,"[('Martial Arts Dojo', '4bf58dd8d48988d101941735')]",55.6740703384347,37.442084638876075,Россия,236,Очаково-Матвеевское,Martial Arts Dojo,4bf58dd8d48988d101941735
"55.66768627499088,37.486185483969265",55.66768627499089,37.48618548396927,4f1ae0dde4b0889e04abcf1b,World Class,"[('Gym / Fitness Center', '4bf58dd8d48988d175941735')]",55.665873956710406,37.486649751663215,"проспект Вернадского, д.101, корп. 3, 119526",203,Тропарёво-Никулино,Gym / Fitness Center,4bf58dd8d48988d175941735
"55.648919252013414,37.58307123504775",55.64891925201341,37.58307123504775,4fb370fae4b0791d424454e5,Спорт Зал Пифка,"[('Gym', '4bf58dd8d48988d176941735')]",55.647086,37.584282,Россия,217,Зюзино,Gym,4bf58dd8d48988d176941735
"55.64720957324331,37.591873356376816",55.64720957324332,37.591873356376816,4d60ec63e4fe54811bfe859e,Кимберли,"[('Gym / Fitness Center', '4bf58dd8d48988d175941735')]",55.646669134299536,37.59710920562559,"Азовская ул., 24 (Черноморский бул.), 117303",334,Зюзино,Gym / Fitness Center,4bf58dd8d48988d175941735
"55.64720957324331,37.591873356376816",55.64720957324332,37.591873356376816,5a44ccf93149b94955cbf7d6,Фитнес Амазония,"[('Gym / Fitness Center', '4bf58dd8d48988d175941735')]",55.64785601680104,37.59608600923585,"улица Азовская, 24, Корп. 3, 117452",274,Зюзино,Gym / Fitness Center,4bf58dd8d48988d175941735
"55.63522511432445,37.65346169206659",55.63522511432446,37.65346169206659,52a42e3011d2fde0e7c8fd9a,L'Atletica,"[('Gym / Fitness Center', '4bf58dd8d48988d175941735')]",55.63376821718997,37.65759766388232,"Пролетарский просп., 20, 115477",306,Царицыно,Gym / Fitness Center,4bf58dd8d48988d175941735
"55.62492947655267,37.706214729841044",55.62492947655266,37.70621472984104,4c32090aa0ced13af170146e,Alfa Fitness (Альфа Фитнес),"[('Gym / Fitness Center', '4bf58dd8d48988d175941735')]",55.62462735773502,37.70983143942638,"Каширское ш., 80 (ул. Маршала Захарова)",229,Орехово-Борисово Северное,Gym / Fitness Center,4bf58dd8d48988d175941735
"55.62321145329235,37.71500358240924",55.62321145329235,37.715003582409246,5b1c14862aff3100399cbd46,World Class,"[('Gym / Fitness Center', '4bf58dd8d48988d175941735')]",55.62124772445834,37.71330893896037,"Каширское шоссе, д.61 cтр.2, 115563",243,Орехово-Борисово Северное,Gym / Fitness Center,4bf58dd8d48988d175941735
"55.619773622127845,37.73257843979789",55.619773622127845,37.73257843979789,4d578fb3afe4b60c895d4661,Спортлэнд,"[('Gym', '4bf58dd8d48988d176941735')]",55.61848953961513,37.734926497934325,"Ореховый пр-д., 35, корп. 2, 115573",205,Зябликово,Gym,4bf58dd8d48988d176941735
"55.616333412421,37.75014949893723",55.616333412421,37.750149498937226,531ab94d498e7d9468cf7322,Force Factory,"[('Gym / Fitness Center', '4bf58dd8d48988d175941735')]",55.6157088476231,37.7457093541956,"ул. Мусы Джалиля, 31, корп. 1",287,Зябликово,Gym / Fitness Center,4bf58dd8d48988d175941735
"55.67965778087332,37.44912330294841",55.67965778087332,37.44912330294841,53fdb6e6498ea15f71f2045f,Элис Фитнес,"[('Gym / Fitness Center', '4bf58dd8d48988d175941735')]",55.67964381068136,37.44738598343919,119361,109,Очаково-Матвеевское,Gym / Fitness Center,4bf58dd8d48988d175941735
"55.6745539429662,37.47557318973856",55.67455394296621,37.47557318973856,4eba1a2d5c5c0e067d328300,Олимпиец,"[('Gym', '4bf58dd8d48988d176941735')]",55.67503151035612,37.47673164830116,"ул. Коштоянца, 20",90,Тропарёво-Никулино,Gym,4bf58dd8d48988d176941735
"55.6745539429662,37.47557318973856",55.67455394296621,37.47557318973856,4f33d069e4b06e8ecc3ed0a2,Зал вольной борьбы,"[('Gym', '4bf58dd8d48988d176941735')]",55.67576800767429,37.47409429438793,"Мичуринский пр-т, Олимпийская Деревня, д. 2",163,Тропарёво-Никулино,Gym,4bf58dd8d48988d176941735
"55.6745539429662,37.47557318973856",55.67455394296621,37.47557318973856,50a6523be4b017a2ec7787e3,Kristian Cestaro Brazillian Jiu Jitsu Academy,"[('Martial Arts Dojo', '4bf58dd8d48988d101941735')]",55.67550314359846,37.477274840643524,Коштаянца Д20/3,150,Тропарёво-Никулино,Martial Arts Dojo,4bf58dd8d48988d101941735
"55.652375062006215,37.59009109471246",55.652375062006215,37.59009109471246,58ea8d77d4390771f079f0bd,Baza Fitness Club,"[('Gym / Fitness Center', '4bf58dd8d48988d175941735')]",55.654206997321864,37.59114917891619,"Малая Юшуньская 3, 117303",214,Зюзино,Gym / Fitness Center,4bf58dd8d48988d175941735
"55.652375062006215,37.59009109471246",55.652375062006215,37.59009109471246,4e149552ae60fe00dfe0731b,K-Gym,"[('Gym / Fitness Center', '4bf58dd8d48988d175941735')]",55.65360275305501,37.59358980887807,"Малая Юшуньская, д.1, корп.2, 117303, город Москва",258,Зюзино,Gym / Fitness Center,4bf58dd8d48988d175941735
"55.62149930950016,37.74839011089894",55.62149930950016,37.74839011089894,501f7846e4b047a4fb170f6f,Olimpic Fitness / БК Спарта,"[('Gym / Fitness Center', '4bf58dd8d48988d175941735')]",55.62133214822716,37.74562678322544,"Шипиловская ул., 58/1, 115580",174,Зябликово,Gym / Fitness Center,4bf58dd8d48988d175941735
"55.68312225284905,37.45613916114715",55.683122252849046,37.45613916114715,516a711fe4b0184c2cc8d3ec,Йога Машенька,"[('Yoga Studio', '4bf58dd8d48988d102941735')]",55.681324395208044,37.45273573288724,Большая Очаковская 28,292,Очаково-Матвеевское,Yoga Studio,4bf58dd8d48988d102941735
"55.628385606971165,37.73784281164736",55.62838560697117,37.73784281164736,4cd117d53e63721ed2c8a1cc,Адреналин,"[('Gym', '4bf58dd8d48988d176941735')]",55.62924540951617,37.74162315006182,"ул. Мусы Джалиля, 4А",256,Зябликово,Gym,4bf58dd8d48988d176941735
"55.684884390846435,37.471974534859235",55.684884390846435,37.47197453485924,4ebaa9946da17451ddf80f2f,"Качалка, Академия ФСБ","[('Gym', '4bf58dd8d48988d176941735')]",55.684263562996605,37.47253060340881,"Мичуринский просп., 70, город Москва, город Москва",77,Очаково-Матвеевское,Gym,4bf58dd8d48988d176941735
"55.65928515541011,37.60413463358469",55.65928515541011,37.604134633584685,4f2e4c5de4b040ea0022a342,"Фитнес ""Феромон""","[('Gym / Fitness Center', '4bf58dd8d48988d175941735')]",55.65957020138985,37.60405352782778,"Азовская ул., 18",32,Зюзино,Gym / Fitness Center,4bf58dd8d48988d175941735
"55.64042696460714,37.70091656514115",55.640426964607144,37.70091656514115,4fced950e4b0191229d8462b,Open Air Gym At Mar'insky Park,"[('Gym', '4bf58dd8d48988d176941735')]",55.64182876879265,37.70540393194798,Россия,322,Марьино,Gym,4bf58dd8d48988d176941735
"55.647322407257434,37.71497231001435",55.647322407257434,37.71497231001435,51482ef3e4b0f0fb9641dde1,Академия Спорта,"[('Gym / Fitness Center', '4bf58dd8d48988d175941735')]",55.64669447173064,37.71495597713367,Новочеркасский бульвар,69,Марьино,Gym / Fitness Center,4bf58dd8d48988d175941735
"55.71567448103009,37.38714139975688",55.71567448103009,37.38714139975689,532d7c8b498e16982501a928,Фитнесс клуб С.С.С.Р,"[('Gym', '4bf58dd8d48988d176941735')]",55.71614204015617,37.38425504678004,"Можайское шоссе, Стр.166Б",188,Можайский,Gym,4bf58dd8d48988d176941735
"55.71567448103009,37.38714139975688",55.71567448103009,37.38714139975689,4f6448fbe4b0777dfc3387df,СК Лидер,"[('Martial Arts Dojo', '4bf58dd8d48988d101941735')]",55.71659967329099,37.38859166161557,"ул. Барвихинская, 8/2",137,Можайский,Martial Arts Dojo,4bf58dd8d48988d101941735
"55.647329413233486,37.73958838733425",55.64732941323349,37.73958838733425,4d1cc975aff260fc77bc2934,Miss Fitness,"[('Gym / Fitness Center', '4bf58dd8d48988d175941735')]",55.64606388856174,37.7376315200105,"Новочеркасский бул., 44, 109144",186,Марьино,Gym / Fitness Center,4bf58dd8d48988d175941735
"55.647329413233486,37.73958838733425",55.64732941323349,37.73958838733425,4da1b1aeb3e7236a6aa30e79,FitEnergy,"[('Gym / Fitness Center', '4bf58dd8d48988d175941735')]",55.647675048380535,37.74284569992387,"Новочеркасский бул., 57, корп. 2",208,Марьино,Gym / Fitness Center,4bf58dd8d48988d175941735
"55.64560854542813,37.74838010941421",55.64560854542813,37.748380109414214,4cdd7fd16ad1a093c2d7f756,Олимп,"[('Gym / Fitness Center', '4bf58dd8d48988d175941735')]",55.64635874972982,37.753548601259546,"Луговой пр-д, 12",335,Марьино,Gym / Fitness Center,4bf58dd8d48988d175941735
"55.71064912558836,37.43830034777159",55.71064912558836,37.4383003477716,59089409c9f90767e748c3f9,СССР Фитнес Верейская Premium,"[('Gym / Fitness Center', '4bf58dd8d48988d175941735')]",55.70953123265296,37.44222453852628,"Верейская, д.29 стр 134, 121357",275,Можайский,Gym / Fitness Center,4bf58dd8d48988d175941735
"55.705545760982645,37.464773235768504",55.705545760982645,37.46477323576849,556ac9fc498e03302e2fc212,Strong,"[('Gym / Fitness Center', '4bf58dd8d48988d175941735')]",55.706844502066794,37.467160380365684,"Нежинская ул., 17, корп. 2",208,Очаково-Матвеевское,Gym / Fitness Center,4bf58dd8d48988d175941735
"55.705545760982645,37.464773235768504",55.705545760982645,37.46477323576849,505181a3e4b011f3a444fb13,FitCurves,"[('Climbing Gym', '503289d391d4c4b30a586d6a')]",55.70683823386585,37.46742557724284,Нежинская 17/2,219,Очаково-Матвеевское,Climbing Gym,503289d391d4c4b30a586d6a
"55.654215808329965,37.72903313988403",55.65421580832997,37.72903313988403,541c519f498e35d26fda1fc1,Акробат,"[('Gymnastics Gym', '52f2ab2ebcbc57f1066b8b48')]",55.6554778859233,37.730998168265316,"ул. Перерва, 19, стр. 1",186,Марьино,Gymnastics Gym,52f2ab2ebcbc57f1066b8b48
"55.65249555750444,37.73782708463286",55.65249555750444,37.73782708463286,4e82b35677c8a556c7256f77,Maxima Fitnes,"[('Gym', '4bf58dd8d48988d176941735')]",55.6531004870705,37.73850732240607,"ул. Перерва, 50, корп. 1",79,Марьино,Gym,4bf58dd8d48988d176941735
"55.65077471132342,37.74662007776405",55.65077471132342,37.74662007776405,4e477763a809fb2fa3f9d686,Alex Fitness,"[('Gym / Fitness Center', '4bf58dd8d48988d175941735')]",55.64914255840618,37.745053530842405,"Люблинская ул., 169, корп. 2",206,Марьино,Gym / Fitness Center,4bf58dd8d48988d175941735
"55.722610459733126,37.4011798173886",55.72261045973313,37.4011798173886,4cdfb7ebf8a4a143135be0bc,Зебра,"[('Gym / Fitness Center', '4bf58dd8d48988d175941735')]",55.72147051250649,37.40280253631305,"ул. Толбухина, 10, корп. 3, 121354",162,Можайский,Gym / Fitness Center,4bf58dd8d48988d175941735
"55.720912367924086,37.41001011854798",55.720912367924086,37.41001011854798,4d873a8640a7a35dec4f43be,"Центр Единоборств ""Крылья Советов""","[('Martial Arts Dojo', '4bf58dd8d48988d101941735')]",55.719546028932285,37.4075294204669,"Кубинка, 7",217,Можайский,Martial Arts Dojo,4bf58dd8d48988d101941735
"55.720912367924086,37.41001011854798",55.720912367924086,37.41001011854798,4de1e070d22d2a4ecdb957b3,X-Fit,"[('Gym / Fitness Center', '4bf58dd8d48988d175941735')]",55.72363885908271,37.411587770368904,"ул. Кутузова, 11, стр. 2",319,Можайский,Gym / Fitness Center,4bf58dd8d48988d175941735
"55.71921367516312,37.41883947494947",55.71921367516312,37.41883947494947,5328946b498e016da754f548,Fit-Studio,"[('Gym', '4bf58dd8d48988d176941735')]",55.72115549681671,37.415942295744784,"Улица Гришина, дом 5, 121354",282,Можайский,Gym,4bf58dd8d48988d176941735
"55.71921367516312,37.41883947494947",55.71921367516312,37.41883947494947,4ddbe7a7b0fb2604df743b85,Империя фитнеса,"[('Gym', '4bf58dd8d48988d176941735')]",55.72130834029557,37.41893887920807,Гришина,233,Можайский,Gym,4bf58dd8d48988d176941735
"55.71581448737311,37.436495352697044",55.715814487373116,37.43649535269704,506f10d2e4b0e15bc4022cb2,Спорт Спорт Спорт,"[('Gym', '4bf58dd8d48988d176941735')]",55.71784975963261,37.434500475157684,Россия,258,Можайский,Gym,4bf58dd8d48988d176941735
"55.709008906836004,37.47179576250869",55.709008906836004,37.47179576250869,5051db87e4b0f53cf08c9fca,Dancera,"[('Yoga Studio', '4bf58dd8d48988d102941735')]",55.70986385628912,37.47712900725717,Веерная 30 К.2,347,Очаково-Матвеевское,Yoga Studio,4bf58dd8d48988d102941735
"55.67140688850122,37.6656770942292",55.67140688850122,37.6656770942292,4e53586baeb74b745815956f,Фитнес ТАЙМ,"[('Gym', '4bf58dd8d48988d176941735')]",55.67310056167363,37.66414497661489,"Проспект Андропова, 37",211,Нагатинский Затон,Gym,4bf58dd8d48988d176941735
"55.65594091839876,37.74485972677434",55.65594091839876,37.744859726774344,50d6c5dae4b00d6422b920bb,Альфа-Будо,"[('Martial Arts Dojo', '4bf58dd8d48988d101941735')]",55.65387336715684,37.74449591799499,Люблинская,231,Марьино,Martial Arts Dojo,4bf58dd8d48988d101941735
"55.65249748348069,37.7624453996697",55.652497483480694,37.7624453996697,4c59a5276407d13a91b2b228,X-Fit,"[('Gym / Fitness Center', '4bf58dd8d48988d175941735')]",55.65223833896886,37.76729179279766,"Братиславская ул., 30",305,Марьино,Gym / Fitness Center,4bf58dd8d48988d175941735
"55.65077487336181,37.77123680757868",55.65077487336182,37.77123680757868,588601a56d349d4a5efef6fa,Raketa Mari,"[('Gym / Fitness Center', '4bf58dd8d48988d175941735')]",55.64930890007224,37.77008436472853,"Поречная ул. 10, 109469",178,Марьино,Gym / Fitness Center,4bf58dd8d48988d175941735
"55.67314027231223,37.68151031315619",55.67314027231223,37.68151031315619,52bef9a5498e8872303203a9,СпортЛэнд,"[('Gym / Fitness Center', '4bf58dd8d48988d175941735')]",55.675810895776884,37.6823056229312,"Кленовый бул., 23 (Коломенская ул.)",301,Нагатинский Затон,Gym / Fitness Center,4bf58dd8d48988d175941735
"55.661107166633705,37.74309905625712",55.6611071666337,37.74309905625712,5be01a7c2b9844002c6e2310,СпортЛэнд,"[('Gym / Fitness Center', '4bf58dd8d48988d175941735')]",55.65883,37.741654,"Люблинская ул., 153, 109382",269,Марьино,Gym / Fitness Center,4bf58dd8d48988d175941735
"55.65938576836255,37.751893640489435",55.65938576836255,37.751893640489435,4ca9c4bdb0b8236a2020c0e6,Zebra Fitness,"[('Gym / Fitness Center', '4bf58dd8d48988d175941735')]",55.65929024291602,37.74855810270286,"ТЦ «БУМ» (ул. Перерва, 43, корп. 1)",209,Марьино,Gym / Fitness Center,4bf58dd8d48988d175941735
"55.657663774741174,37.76068727224702",55.657663774741174,37.76068727224703,4f856221e4b0cd08a4857f81,"Центр йоги и массажа ""Vita""","[('Yoga Studio', '4bf58dd8d48988d102941735')]",55.656582362929875,37.760183590710795,"Братиславская ул., 18, корп. 1",124,Марьино,Yoga Studio,4bf58dd8d48988d102941735
"55.657663774741174,37.76068727224702",55.657663774741174,37.76068727224703,4f52406be4b006151458f45b,FRESH Fitness Club,"[('Gym', '4bf58dd8d48988d176941735')]",55.6557877382253,37.76220973301305,"Братиславская ул., 22",229,Марьино,Gym,4bf58dd8d48988d176941735
"55.657663774741174,37.76068727224702",55.657663774741174,37.76068727224703,5346406c498ede3f6155aea7,Тонус Клуб (Фитнес для женщин),"[('Gym / Fitness Center', '4bf58dd8d48988d175941735')]",55.6583756378032,37.75977623584042,"ул. Братиславская, 18, к. 1",97,Марьино,Gym / Fitness Center,4bf58dd8d48988d175941735
"55.72444488744292,37.44171344004289",55.72444488744292,37.44171344004289,4c445c33f0bdd13a276bc9cc,N-Ergo,"[('Gym / Fitness Center', '4bf58dd8d48988d175941735')]",55.725848700397094,37.446356946290216,"Можайское ш., 2 (Рублёвское ш.), 121374",330,Можайский,Gym / Fitness Center,4bf58dd8d48988d175941735
"55.72274384547708,37.45054157546057",55.722743845477076,37.45054157546057,526293c1498ee0f09df80800,Lakshmi Studio,"[('Yoga Studio', '4bf58dd8d48988d102941735')]",55.724436820067645,37.44780992827524,"Можайское ш., 2",254,Можайский,Yoga Studio,4bf58dd8d48988d102941735
"55.661107539771166,37.76772277667577",55.66110753977117,37.767722776675775,5413ffbd498ec124d5c8a94f,Территория фитнеса,"[('Gym / Fitness Center', '4bf58dd8d48988d175941735')]",55.66203783941178,37.76452660560608,"Перервинский бул., 4, корп. 1",225,Марьино,Gym / Fitness Center,4bf58dd8d48988d175941735
"55.65938437709591,37.776515774294325",55.65938437709591,37.77651577429433,517e192ae4b08d47114849f4,"Фитнес-клуб & салон красоты ""БиоАльянс""","[('Gym', '4bf58dd8d48988d176941735')]",55.65870283927085,37.77707856424567,"г. Москва, ул. Марьинский парк, д. 9, к. 2",83,Марьино,Gym,4bf58dd8d48988d176941735
"55.73640844555694,37.40458159672674",55.73640844555694,37.40458159672674,4e64cf1945ddda352a935b00,Gym,"[('Gym', '4bf58dd8d48988d176941735')]",55.733787613979864,37.40596521416007,город Москва,304,Кунцево,Gym,4bf58dd8d48988d176941735
"55.73470983433459,37.41341479661689",55.7347098343346,37.41341479661689,5832da7bfbe8ff7800619859,GYMS.MOSCOW,"[('Gym / Fitness Center', '4bf58dd8d48988d175941735')]",55.732351806209095,37.41243668372253,Ул. партизанская 10,269,Кунцево,Gym / Fitness Center,4bf58dd8d48988d175941735
"55.73131080830391,37.431078359213096",55.73131080830391,37.431078359213096,4eef5d4502d514a36c221599,Combat Moscow,"[('Martial Arts Dojo', '4bf58dd8d48988d101941735')]",55.733543873407896,37.42781144850621,"Молодогвардейская ул., 15",322,Кунцево,Martial Arts Dojo,4bf58dd8d48988d101941735
"55.72961039378969,37.43990872152804",55.72961039378969,37.43990872152804,4beeadf7d355a59348240b60,World Class,"[('Gym / Fitness Center', '4bf58dd8d48988d175941735')]",55.72826248028597,37.438367720300405,"улица Ивана Франко, д.16, 121351",178,Кунцево,Gym / Fitness Center,4bf58dd8d48988d175941735
"55.72961039378969,37.43990872152804",55.72961039378969,37.43990872152804,4d171da1b15cb1f71408b221,Атлас,"[('Gym', '4bf58dd8d48988d176941735')]",55.72868700783915,37.44042581398972,"Ивана Франко 14, город Москва",107,Кунцево,Gym,4bf58dd8d48988d176941735
"55.739875298961834,37.41160589870675",55.73987529896184,37.41160589870675,53ecb211498e4d9f67ff2a78,World Class,"[('Gym / Fitness Center', '4bf58dd8d48988d175941735')]",55.73859127721825,37.411004499999926,"улица Ярцевская, д.19 (Ярцевская ул., 19), 121552",147,Кунцево,Gym / Fitness Center,4bf58dd8d48988d175941735
"55.73647632706942,37.42927202464776",55.736476327069425,37.42927202464776,581862d938fa07e7d43995ad,EMS-FITNESS STUDIO,"[('Gym / Fitness Center', '4bf58dd8d48988d175941735')]",55.735533,37.432509,Истринская 8/3,228,Кунцево,Gym / Fitness Center,4bf58dd8d48988d175941735
"55.68692163748845,37.68500470822724",55.68692163748845,37.68500470822725,4ed675446da11135034d59ae,Прадна Фитнес,"[('Gym / Fitness Center', '4bf58dd8d48988d175941735')]",55.684925900972175,37.687304904601724,Судостроительная 41,264,Нагатинский Затон,Gym / Fitness Center,4bf58dd8d48988d175941735
"55.68176658148791,37.711414202935494",55.681766581487906,37.711414202935494,4e503b4c1f6eae4d25264b49,Треугольник Камней,"[('Yoga Studio', '4bf58dd8d48988d102941735')]",55.683770296855535,37.70858925285716,"коломенская набережная, город Москва",284,Нагатинский Затон,Yoga Studio,4bf58dd8d48988d102941735
"55.75352756730551,37.36560838524562",55.75352756730551,37.36560838524562,4eec52288b81bbbf5bd6a6c6,Теннисный Центр В Жуковке,"[('Gym', '4bf58dd8d48988d176941735')]",55.753292497109044,37.36929313512568,Россия,232,Кунцево,Gym,4bf58dd8d48988d176941735
"55.69037018361197,37.69204050421885",55.69037018361197,37.69204050421885,4e8720fe30f8e3ea6b91022a,Power Pack Gym,"[('Gym', '4bf58dd8d48988d176941735')]",55.68823171286143,37.69548042205188,город Москва,321,Нагатинский Затон,Gym,4bf58dd8d48988d176941735
"55.68005125936076,37.7448528503425",55.68005125936076,37.7448528503425,548be8b7498eb5ef0563c438,Pole Dance Club,"[('Gymnastics Gym', '52f2ab2ebcbc57f1066b8b48')]",55.68016833449118,37.75028352822361,Краснодонская 19с2,341,Люблино,Gymnastics Gym,52f2ab2ebcbc57f1066b8b48
"55.67832935203047,37.753651572095734",55.67832935203047,37.75365157209573,5075a3dfe4b0b3e998f6c9fd,Стрелец,"[('Gym', '4bf58dd8d48988d176941735')]",55.68019973063112,37.757694901822354,Россия,328,Люблино,Gym,4bf58dd8d48988d176941735
"55.6834958493124,37.75189184850318",55.6834958493124,37.75189184850318,4e6b1102fa76cd0f76fabcec,Империя Фитнеса,"[('Gym', '4bf58dd8d48988d176941735')]",55.68337493635821,37.7543807302325,"Спортивный Проезд, 5",156,Люблино,Gym,4bf58dd8d48988d176941735
"55.69555015860858,37.7642155314569",55.69555015860858,37.7642155314569,4fdda494a17c802e89c44aea,Спортивная площадка в ПКиО Кузьминки,"[('Gym', '4bf58dd8d48988d176941735')]",55.69301855923647,37.76289975571552,ПКиО Кузьминки,293,Кузьминки,Gym,4bf58dd8d48988d176941735
"55.678287271602166,37.852182069656784",55.67828727160217,37.852182069656784,4f548125e4b036244c703301,"Фитнес Клуб ""Спортленд""","[('Gym', '4bf58dd8d48988d176941735')]",55.67845097240778,37.85329189739328,Ул. Генерала Кузнецова,72,Выхино-Жулебино,Gym,4bf58dd8d48988d176941735
"55.678287271602166,37.852182069656784",55.67828727160217,37.852182069656784,4ebd1eabb6341bd789129058,Спортлэнд,"[('Gym / Fitness Center', '4bf58dd8d48988d175941735')]",55.678539592116365,37.853619379531686,"БЦ «Жулебино» (Привольная ул., 70), город Москва",94,Выхино-Жулебино,Gym / Fitness Center,4bf58dd8d48988d175941735
"55.70416224966493,37.744849754267946",55.704162249664925,37.744849754267946,52937f1211d211bd17a950c0,Фитнес Лэнд,"[('Gym / Fitness Center', '4bf58dd8d48988d175941735')]",55.70665328357993,37.74755593950375,"Волжский бул., 114/а",325,Кузьминки,Gym / Fitness Center,4bf58dd8d48988d175941735
"55.698993276381394,37.771259306243394",55.69899327638139,37.771259306243394,54971016498ed521a2bb54e6,"Фитнес клуб ""Да Винчи""","[('Gym / Fitness Center', '4bf58dd8d48988d175941735')]",55.698659262461824,37.76748386694786,"Кузьминский Парк, 109472",239,Кузьминки,Gym / Fitness Center,4bf58dd8d48988d175941735
"55.697269092958415,37.7800605796881",55.69726909295842,37.7800605796881,4c0dfaf55272d13a9d08df5b,СпортЛэнд,"[('Gym / Fitness Center', '4bf58dd8d48988d175941735')]",55.69944624318716,37.77966565943172,"Волгоградский просп., 152, корп. 1 (ул. Академика Скрябина)",243,Кузьминки,Gym / Fitness Center,4bf58dd8d48988d175941735
"55.685183131619894,37.841642726860854",55.685183131619894,37.841642726860854,4dcbd767fa76d745f05d1497,С-Лакс,"[('Gym / Fitness Center', '4bf58dd8d48988d175941735')]",55.68318341315223,37.844746993237685,"Привольная, 57/1",295,Выхино-Жулебино,Gym / Fitness Center,4bf58dd8d48988d175941735
"55.70243588217996,37.77830435569031",55.702435882179955,37.77830435569031,4d2c7693342d6dcb4da31fcb,СДЮСШОР № 64 / СК «Есенинский»,"[('Martial Arts Dojo', '4bf58dd8d48988d101941735')]",55.70161086541703,37.780206560932214,"Есенинский бул., 9, корп. 2",150,Кузьминки,Martial Arts Dojo,4bf58dd8d48988d101941735
"55.77950145498067,37.40596640075207",55.77950145498067,37.40596640075207,5208cd4411d22e8e0fa860af,Серебряный Бор Workout Station,"[('Outdoor Gym', '58daa1558bbb0b01f18ec203')]",55.77839932258443,37.406483844228944,Россия,126,Хорошёво-Мнёвники,Outdoor Gym,58daa1558bbb0b01f18ec203
"55.69032853978217,37.8645334316253",55.69032853978217,37.8645334316253,4d3584da6c7c721e7381cb56,Фитнес Клуб «Леон»,"[('Gym / Fitness Center', '4bf58dd8d48988d175941735')]",55.688276315760156,37.864611616959365,"ул. Маршала Полубоярова, 9/68",228,Выхино-Жулебино,Gym / Fitness Center,4bf58dd8d48988d175941735
"55.77105410965979,37.47488233564998",55.77105410965979,37.47488233564998,54c73904498ee56143c74224,FIT-N-GO,"[('Gym', '4bf58dd8d48988d176941735')]",55.773547834815815,37.47225806137475,Россия,322,Хорошёво-Мнёвники,Gym,4bf58dd8d48988d176941735
"55.76764479572373,37.49255448664155",55.767644795723726,37.492554486641545,4c273789f3859c74368a6588,World Class LITE,"[('Gym / Fitness Center', '4bf58dd8d48988d175941735')]",55.77006333635544,37.48982406836766,"улица Демьяна Бедного, д.4 корп. 2 (Карамышевская наб.), 123308",318,Хорошёво-Мнёвники,Gym / Fitness Center,4bf58dd8d48988d175941735
"55.70759364954568,37.80120050881101",55.70759364954568,37.80120050881101,4dbc36e44df044e524ddccb4,WeGym,"[('Gym / Fitness Center', '4bf58dd8d48988d175941735')]",55.70999355257428,37.802865772178784,"Ферганская ул., 6, корп. 2",286,Выхино-Жулебино,Gym / Fitness Center,4bf58dd8d48988d175941735
"55.70412225540447,37.8434503173776",55.70412225540447,37.8434503173776,4fff01eee4b0012e5338fbf9,Турники,"[('Outdoor Gym', '58daa1558bbb0b01f18ec203')]",55.70240952812662,37.84561625174752,"Пронская, 109145",234,Выхино-Жулебино,Outdoor Gym,58daa1558bbb0b01f18ec203
"55.79499910154909,37.4005334519301",55.79499910154909,37.4005334519301,4e46c767d4c065cb6ba425a4,Molla fitness,"[('Gym / Fitness Center', '4bf58dd8d48988d175941735')]",55.79432939463896,37.39719085534738,"Твардовского, д.12",222,Строгино,Gym / Fitness Center,4bf58dd8d48988d175941735
"55.79329961554516,37.409380167532454",55.79329961554516,37.409380167532454,52962237498e42dd673166c6,Кардио Зона NeoFit строгино,"[('Gym', '4bf58dd8d48988d176941735')]",55.79572803109145,37.40776626482876,Исаковского 33,288,Строгино,Gym,4bf58dd8d48988d176941735
"55.7830900477621,37.46244052732571",55.7830900477621,37.46244052732571,4f4dd5b1e4b0657aa5bb60d0,else club fitness & spa haute couture,"[('Gym / Fitness Center', '4bf58dd8d48988d175941735')]",55.784896169565286,37.46370614799314,Россия,216,Хорошёво-Мнёвники,Gym / Fitness Center,4bf58dd8d48988d175941735
"55.777977137237,37.48895788380135",55.777977137236995,37.48895788380135,5304d1c9498eb2957e30bf03,Школа боевых искусств Дмитрия Носова,"[('Martial Arts Dojo', '4bf58dd8d48988d101941735')]",55.779019799434735,37.49196742494602,"Новохорошевский пр., 24, корп. 2",221,Хорошёво-Мнёвники,Martial Arts Dojo,4bf58dd8d48988d101941735
"55.77627163076712,37.497795101557266",55.77627163076712,37.49779510155727,5829f202772592658784b3d2,Фитнес Клуб G8 на Полежаевской,"[('Gym / Fitness Center', '4bf58dd8d48988d175941735')]",55.7764657656604,37.50052789777752,"проспект Маршала Жукова, 4 строение 1",172,Хорошёво-Мнёвники,Gym / Fitness Center,4bf58dd8d48988d175941735
"55.80186391692333,37.38987284204423",55.80186391692333,37.38987284204423,53ae8849498e2838da93fffe,World Class,"[('Gym / Fitness Center', '4bf58dd8d48988d175941735')]",55.8030663,37.3895189,"улица Кулакова, д.20, корп. 1, 123592",135,Строгино,Gym / Fitness Center,4bf58dd8d48988d175941735
"55.78995927155654,37.45179556646677",55.78995927155654,37.45179556646678,4bb968a298c7ef3bc11a3202,Vitasport,"[('Gym / Fitness Center', '4bf58dd8d48988d175941735')]",55.79024421046821,37.44948063993253,"Живописная ул., 21, корп. 2",148,Хорошёво-Мнёвники,Gym / Fitness Center,4bf58dd8d48988d175941735
"55.78995927155654,37.45179556646677",55.78995927155654,37.45179556646678,521dd26a11d2a55caf53e33e,Энигма,"[('Gym / Fitness Center', '4bf58dd8d48988d175941735')]",55.7898917084481,37.45339396752167,"Живописная ул., 21, стр. 2 (ул. Паршина)",100,Хорошёво-Мнёвники,Gym / Fitness Center,4bf58dd8d48988d175941735
"55.78995927155654,37.45179556646677",55.78995927155654,37.45179556646678,5365016e498ea78a590de37f,Enigma Fitness,"[('Gym / Fitness Center', '4bf58dd8d48988d175941735')]",55.78984064465406,37.453572803320505,"Живописная, 21с1",112,Хорошёво-Мнёвники,Gym / Fitness Center,4bf58dd8d48988d175941735
"55.78995927155654,37.45179556646677",55.78995927155654,37.45179556646678,4f48c4afe4b0d63741629b8e,Титан,"[('Gym / Fitness Center', '4bf58dd8d48988d175941735')]",55.790892836538546,37.45549632185625,"Живописная ул., 30, корп. 2",253,Хорошёво-Мнёвники,Gym / Fitness Center,4bf58dd8d48988d175941735
"55.78995927155654,37.45179556646677",55.78995927155654,37.45179556646678,4f5b5ba5e4b06784f77a7faa,"Секция Бокса ""Первая Перчатка""","[('Boxing Gym', '52f2ab2ebcbc57f1066b8b47')]",55.7923352132872,37.449933407313225,"Живописная улица, 21 с4",289,Хорошёво-Мнёвники,Boxing Gym,52f2ab2ebcbc57f1066b8b47
"55.78655252301774,37.46947922529141",55.78655252301774,37.4694792252914,4df793fdd22df20cc2d7e4f3,Сити-Го-Сан,"[('Martial Arts Dojo', '4bf58dd8d48988d101941735')]",55.7876627496144,37.47329213397771,"ул. Берзарина, 23",268,Хорошёво-Мнёвники,Martial Arts Dojo,4bf58dd8d48988d101941735
"55.78655252301774,37.46947922529141",55.78655252301774,37.4694792252914,50fa938be4b03727ab2e56de,Торион,"[('Gym / Fitness Center', '4bf58dd8d48988d175941735')]",55.78682000132318,37.471558017423746,Тухачевского 32к2,133,Хорошёво-Мнёвники,Gym / Fitness Center,4bf58dd8d48988d175941735
"55.78484824593792,37.47831962903175",55.78484824593792,37.47831962903175,4f27d5b6e4b071524240f2c7,"Фитнес ""Северо-Запад""","[('Gym / Fitness Center', '4bf58dd8d48988d175941735')]",55.78742111674733,37.47732489069785,"улица Берзарина, дом 19, корпус 1",293,Хорошёво-Мнёвники,Gym / Fitness Center,4bf58dd8d48988d175941735
"55.72309470365037,37.795939488935744",55.72309470365037,37.795939488935744,5818a42638fa17eb25950ee6,Y-15 fitness,"[('Gym / Fitness Center', '4bf58dd8d48988d175941735')]",55.7244780579741,37.80053761190228,"улица Юности 15, 111395",326,Вешняки,Gym / Fitness Center,4bf58dd8d48988d175941735
"55.80193159619683,37.41460742633543",55.80193159619683,37.41460742633543,4e639c241838ad3d0f4ccf89,Фитнес-клуб «Янтарь»,"[('Gym / Fitness Center', '4bf58dd8d48988d175941735')]",55.80118448622854,37.4148416519165,"ул. Маршала Катукова, 26, 123592",84,Строгино,Gym / Fitness Center,4bf58dd8d48988d175941735
"55.903918982607586,37.585608354631454",55.90391898260759,37.585608354631454,5066cfcd498e82405ea64fd7,Majestick Pole Dance,"[('Pilates Studio', '5744ccdfe4b0c0459246b4b2')]",55.90380025658077,37.591024078557524,"Алтуфьевское ш., 102Б, 127349",338,Бибирево,Pilates Studio,5744ccdfe4b0c0459246b4b2
"55.89877225428271,37.61218434385309",55.89877225428271,37.612184343853095,4d4fb356d7eaa143446c5f0f,Платинум-фитнес,"[('Gym', '4bf58dd8d48988d176941735')]",55.897746726177,37.61142947048319,Россия,123,Бибирево,Gym,4bf58dd8d48988d176941735
"55.897055472331274,37.6210410835883",55.89705547233129,37.621041083588295,507d995be4b0739082c1eb5a,Тренажерный зал УОР им. Гомельского,"[('Gym', '4bf58dd8d48988d176941735')]",55.89515564937382,37.617041046728936,Белозерская 14,327,Бибирево,Gym,4bf58dd8d48988d176941735
"55.891901511036224,37.647605530059025",55.89190151103622,37.64760553005903,4ee768579adf3982023aa4a6,СК Иван,"[('Martial Arts Dojo', '4bf58dd8d48988d101941735')]",55.89115378084622,37.65244325461767,"Ул.Широкая, д.1, кор.5",313,Северное Медведково,Martial Arts Dojo,4bf58dd8d48988d101941735
"55.891901511036224,37.647605530059025",55.89190151103622,37.64760553005903,50c49b4ce4b0e0fa355bddc1,Спортивный клуб Иван,"[('Gym', '4bf58dd8d48988d176941735')]",55.89127100035085,37.6520213484764,"Широкая ул, д.1 к.5",284,Северное Медведково,Gym,4bf58dd8d48988d176941735
"55.88674212971435,37.67416131335969",55.88674212971436,37.67416131335969,58027d41d67c8e7eb2ede6d7,Фитнес&Spa Зебра,"[('Gym', '4bf58dd8d48988d176941735')]",55.88592211070957,37.678540081178454,"ул. Широкая, д. 30, 127224",288,Северное Медведково,Gym,4bf58dd8d48988d176941735
"55.53345649666462,37.557356641313554",55.53345649666462,37.55735664131355,4ee4ed2ca69d89905c82021d,Бокс От Каптушки,"[('Gym', '4bf58dd8d48988d176941735')]",55.53602428730357,37.55735930340713,Москва,285,Южное Бутово,Gym,4bf58dd8d48988d176941735
"55.692092967779324,37.806458665748885",55.69209296777933,37.80645866574889,4ec7aa65722e143796866179,"МУ ""Истоки""","[('Gym', '4bf58dd8d48988d176941735')]",55.69470923076237,37.80445373461336,"Ул. Ташкентская, 33 к. 2",317,Выхино-Жулебино,Gym,4bf58dd8d48988d176941735
"55.80539708031197,37.42164634401747",55.805397080311955,37.42164634401747,524476cc11d2245d041a1d8e,NeoFit,"[('Gym / Fitness Center', '4bf58dd8d48988d175941735')]",55.80484798719064,37.41922438707945,"ул. Исаковского, 33",163,Строгино,Gym / Fitness Center,4bf58dd8d48988d175941735
"55.790064488159196,37.50124166975039",55.790064488159196,37.50124166975039,51191d6ee4b02a68e341f80f,FightZona,"[('Martial Arts Dojo', '4bf58dd8d48988d101941735')]",55.787627789283455,37.49950591846144,3-я Хорошевская 12,292,Хорошёво-Мнёвники,Martial Arts Dojo,4bf58dd8d48988d101941735
"55.72479099163076,37.836459226148",55.724790991630755,37.836459226148,4e37a9db22713b80b9fe861e,ФОК Вешняки,"[('Gym', '4bf58dd8d48988d176941735')]",55.724695769016066,37.83390289678519,"ул. Косинская, 12б",160,Вешняки,Gym,4bf58dd8d48988d176941735
"55.75066280624514,37.75366992087718",55.75066280624514,37.75366992087718,528b83d411d23336a95be25a,"Московский клуб самообороны ""ВИТЯЗЬ""","[('Martial Arts Dojo', '4bf58dd8d48988d101941735')]",55.749223252998476,37.75238115393497,"ул. Перовская, 1",179,Перово,Martial Arts Dojo,4bf58dd8d48988d101941735
"55.74548911284701,37.780109167774945",55.745489112847004,37.78010916777495,5005a0c3e4b069fdd863b56e,Фитнес-центр «Карибия»,"[('Gym / Fitness Center', '4bf58dd8d48988d175941735')]",55.74821273484466,37.77835792712757,"Аквапарк «Карибия» (Зеленый просп., 10б)",322,Перово,Gym / Fitness Center,4bf58dd8d48988d175941735
"55.73685435098838,37.82415540895762",55.73685435098838,37.824155408957616,502290aee4b0722ed9539396,Фитнес клуб «Ок»,"[('Gym / Fitness Center', '4bf58dd8d48988d175941735')]",55.73615684477636,37.82157447600535,"Вешняковская ул., 12 Б, стр. 1",179,Вешняки,Gym / Fitness Center,4bf58dd8d48988d175941735
"55.735125609025495,37.83296177995325",55.735125609025495,37.83296177995325,50ec58f9e4b02d8f18d600f2,FitLife,"[('Gym / Fitness Center', '4bf58dd8d48988d175941735')]",55.7380379895337,37.83498362538912,Россия,348,Вешняки,Gym / Fitness Center,4bf58dd8d48988d175941735
"55.83448298181439,37.34537196284767",55.834482981814396,37.34537196284767,54846848498e6510cc0a3e5b,Yellow Sun,"[('Gym / Fitness Center', '4bf58dd8d48988d175941735')]",55.8337130955073,37.34991169646619,"м. Митино, пер. Волоцкой д.7 стр.1",296,Митино,Gym / Fitness Center,4bf58dd8d48988d175941735
"55.83278668272937,37.354231154203916",55.83278668272937,37.35423115420392,4ea56df37ee52a35de211347,"Спорт Зал ""Корона""","[('Gym', '4bf58dd8d48988d176941735')]",55.834873362632344,37.355515794259844,"Ул Ген. Белобородова 16к1, город Москва",245,Митино,Gym,4bf58dd8d48988d176941735
"55.83278668272937,37.354231154203916",55.83278668272937,37.35423115420392,50aa5316e4b04d89959bb27b,Фортуна,"[('Gym', '4bf58dd8d48988d176941735')]",55.83442669370991,37.35404825889496,Митино,182,Митино,Gym,4bf58dd8d48988d176941735
"55.752381497192104,37.76953889977047",55.752381497192104,37.76953889977047,4f16ed94e4b0044a28ac6094,WeGym,"[('Gym / Fitness Center', '4bf58dd8d48988d175941735')]",55.750430119461356,37.77135888979343,"1-й пр. Перова поля, 9",245,Перово,Gym / Fitness Center,4bf58dd8d48988d175941735
"55.752381497192104,37.76953889977047",55.752381497192104,37.76953889977047,5833188a9168026ebfa51064,СОЮЗ CrossFit,"[('Gym / Fitness Center', '4bf58dd8d48988d175941735')]",55.75246313280121,37.772889497301655,Москва,210,Перово,Gym / Fitness Center,4bf58dd8d48988d175941735
"55.74029297997217,37.831212581055645",55.74029297997218,37.83121258105565,58e23a92dfa6ff63a925f6fc,Ссср Реутовская,"[('Gym / Fitness Center', '4bf58dd8d48988d175941735')]",55.74234084857951,37.83482685733456,"Реутовская 3, 111539",321,Вешняки,Gym / Fitness Center,4bf58dd8d48988d175941735
"55.74029297997217,37.831212581055645",55.74029297997218,37.83121258105565,4efc7f5f5c5c533f381e87fa,Фит Лайф,"[('Gym / Fitness Center', '4bf58dd8d48988d175941735')]",55.73806125660426,37.83499971152121,Реутовская д 10,343,Вешняки,Gym / Fitness Center,4bf58dd8d48988d175941735
"55.75754876089909,37.76778043545392",55.757548760899105,37.76778043545392,4d9b2c4b3f78548153e8d9d1,Бассейн Луч,"[('Gym / Fitness Center', '4bf58dd8d48988d175941735')]",55.7584802922616,37.77135609288287,"ул. 1-я Владимирская, д. 10б",246,Перово,Gym / Fitness Center,4bf58dd8d48988d175941735
"55.75754876089909,37.76778043545392",55.757548760899105,37.76778043545392,4f84497be4b01b06cf819bb5,"КСК ""Луч Фитнес""","[('Gym / Fitness Center', '4bf58dd8d48988d175941735')]",55.75932049148535,37.771007203613074,Россия,282,Перово,Gym / Fitness Center,4bf58dd8d48988d175941735
"55.83802652854837,37.377172731563505",55.838026528548355,37.377172731563505,4c7e8b9bf4cf9c7455b19ca0,Жива-студия,"[('Yoga Studio', '4bf58dd8d48988d102941735')]",55.84056881396214,37.37809567314589,"Митинская ул., 12 (Цариков пер.)",288,Митино,Yoga Studio,4bf58dd8d48988d102941735
"55.83802652854837,37.377172731563505",55.838026528548355,37.377172731563505,520d03b111d26840639496f7,Zebra Fitness and Spa,"[('Gym', '4bf58dd8d48988d176941735')]",55.83909119323085,37.37871222449213,Novotushinsky Proezd,152,Митино,Gym,4bf58dd8d48988d176941735
"55.83632786933749,37.386030704016456",55.8363278693375,37.38603070401645,5055d14de4b0a13303154748,Спорт Центр Бубновского,"[('Gym', '4bf58dd8d48988d176941735')]",55.837585505189104,37.389282716579935,Россия,246,Митино,Gym,4bf58dd8d48988d176941735
"55.76099096899266,37.7748376116723",55.76099096899265,37.7748376116723,5853fbbeabf63277f1384079,Fitness Avenue,"[('Gym / Fitness Center', '4bf58dd8d48988d175941735')]",55.76265876992682,37.77260286770973,"ш. Энтузиастов, 33а (1-я Владимирская ул.)",232,Перово,Gym / Fitness Center,4bf58dd8d48988d175941735
"55.76099096899266,37.7748376116723",55.76099096899265,37.7748376116723,58187e3238fa07e7d4685d6a,Fitnessavenue,"[('Gym / Fitness Center', '4bf58dd8d48988d175941735')]",55.76269880945403,37.77277782871178,Россия,229,Перово,Gym / Fitness Center,4bf58dd8d48988d175941735
"55.84319277081533,37.37535707177502",55.84319277081533,37.37535707177502,526539fa498e25edcb351887,Yoga Practika,"[('Yoga Studio', '4bf58dd8d48988d102941735')]",55.84153883866804,37.37716586328906,"Митинская ул., 12",216,Митино,Yoga Studio,4bf58dd8d48988d102941735
"55.84319277081533,37.37535707177502",55.84319277081533,37.37535707177502,57417f4c498e0b67683599a2,WeGym,"[('Gym', '4bf58dd8d48988d176941735')]",55.84243307429285,37.37314783920215,"улица Митинская, вл. 16, 125368",161,Митино,Gym,4bf58dd8d48988d176941735
"55.83979490468936,37.393074646791796",55.83979490468936,37.393074646791796,4ecb57339adfd1f5b4d1209f,Fitness Club,"[('Gym', '4bf58dd8d48988d176941735')]",55.837639108914225,37.389432444935295,город Москва,330,Митино,Gym,4bf58dd8d48988d176941735
"55.85345123231529,37.34695370573337",55.853451232315294,37.34695370573336,4ed709339911b345bdaa6c00,Семейный клуб «СемьЯ»,"[('Gym / Fitness Center', '4bf58dd8d48988d175941735')]",55.853825414950215,37.34634098126615,"Ангелов пер., 8",56,Митино,Gym / Fitness Center,4bf58dd8d48988d175941735
"55.85175444351486,37.35581711165355",55.851754443514864,37.35581711165355,4c1dde9ab306c928913f66b7,World Class LITE,"[('Gym / Fitness Center', '4bf58dd8d48988d175941735')]",55.851193,37.35991,"Пятницкое шоссе, д.29 корп. 5, 125430",263,Митино,Gym / Fitness Center,4bf58dd8d48988d175941735
"55.85005704994102,37.364679567081886",55.85005704994102,37.36467956708189,4ecd0d0630f84584a048c0ce,Время спорта,"[('Gym', '4bf58dd8d48988d176941735')]",55.84851301602453,37.36486096782232,"Пятницкое ш., 25, корп. 1, 125430, город Москва",172,Митино,Gym,4bf58dd8d48988d176941735
"55.76956888309014,37.82952507331733",55.76956888309015,37.82952507331733,4fcce9f0e4b01cbffc877488,MaxFit,"[('Gym', '4bf58dd8d48988d176941735')]",55.767881880167074,37.8306955924121,Саянская,201,Ивановское,Gym,4bf58dd8d48988d176941735
"55.85365795284943,37.42126332327175",55.853657952849424,37.42126332327175,4f2fb2f1e4b0bd78b92317b4,Эос,"[('Gym / Fitness Center', '4bf58dd8d48988d175941735')]",55.85615691304365,37.42004531045495,"Туристская ул., 27/1",288,Северное Тушино,Gym / Fitness Center,4bf58dd8d48988d175941735
"55.77992228807865,37.80132512829891",55.77992228807865,37.801325128298906,511f50aae4b02709562cc149,Зал,"[('Gym', '4bf58dd8d48988d176941735')]",55.78163228524064,37.80100748403827,Россия,191,Ивановское,Gym,4bf58dd8d48988d176941735
"55.77473656489614,37.8277749282256",55.774736564896145,37.8277749282256,51a8dfc6498eca551e877236,X-Line Fitness,"[('Gym', '4bf58dd8d48988d176941735')]",55.777097267959995,37.82620614161953,"Ул. Челябинская, 7А",280,Ивановское,Gym,4bf58dd8d48988d176941735
"55.77473656489614,37.8277749282256",55.774736564896145,37.8277749282256,4d4d46c74aa3a0931efa40ae,"Спортивный клуб ""Лайм""","[('Gym', '4bf58dd8d48988d176941735')]",55.77732629935139,37.82665306626135,"Челябинская, 7, 105568",296,Ивановское,Gym,4bf58dd8d48988d176941735
"55.86399120018386,37.417643764328375",55.86399120018386,37.417643764328375,4f928498e4b0c98cdfef36f2,СДЮСШОР № 101 «Тушино»,"[('Gym', '4bf58dd8d48988d176941735')]",55.86221188829155,37.41984353759985,"ул. Вилиса Лациса, 20",241,Северное Тушино,Gym,4bf58dd8d48988d176941735
"55.86399120018386,37.417643764328375",55.86399120018386,37.417643764328375,4c1a13f698f4a5934df900f6,Тренажерный Зал МАИ,"[('Gym', '4bf58dd8d48988d176941735')]",55.86402831639305,37.42058460474834,"ул. Вилиса Лациса,д.16",183,Северное Тушино,Gym,4bf58dd8d48988d176941735
"55.864049886842565,37.442418386811816",55.86404988684257,37.442418386811816,512da172e4b0363422005b30,ПерунЪ,"[('Gym / Fitness Center', '4bf58dd8d48988d175941735')]",55.86581655976621,37.4423662958938,"ул. Свободы, 89, корп. 5",196,Северное Тушино,Gym / Fitness Center,4bf58dd8d48988d175941735
"55.81610881654109,37.76431296341714",55.81610881654109,37.76431296341714,4e0ad8911fc780c5b5c516c5,Золотой Лотос,"[('Gym / Fitness Center', '4bf58dd8d48988d175941735')]",55.816281472170836,37.76734828948975,"ул. Монтажная, д.2-а, стр.1 (2-й Иртышский проезд)",190,Гольяново,Gym / Fitness Center,4bf58dd8d48988d175941735
"55.81092886365467,37.79079449629536",55.810928863654674,37.79079449629536,502a46e6e4b0f474035089d2,Тренировочный Зал,"[('Gym', '4bf58dd8d48988d176941735')]",55.81349759298431,37.78847768295999,Россия,320,Гольяново,Gym,4bf58dd8d48988d176941735
"55.85567124674768,37.5857625881168",55.855671246747676,37.5857625881168,56955a22498ec0e8bfcf839a,Фитнес клуб Зебра,"[('Gym / Fitness Center', '4bf58dd8d48988d175941735')]",55.85780150421701,37.58529281401537,"Алтуфьевское Шоссе, д.18а, 127562",238,Отрадное,Gym / Fitness Center,4bf58dd8d48988d175941735
"55.859124660582566,37.592826366009106",55.85912466058257,37.59282636600911,4e65c3d6d164ddd5e72b4741,"Спорткомплекс ""Отрадное""","[('Gym / Fitness Center', '4bf58dd8d48988d175941735')]",55.85772275193789,37.59392377453193,"Хачатуряна 10, город Москва",170,Отрадное,Gym / Fitness Center,4bf58dd8d48988d175941735
"55.8556948656625,37.610523333133266",55.8556948656625,37.61052333313327,4bb22848f964a5206ebe3ce3,X-Fit,"[('Gym / Fitness Center', '4bf58dd8d48988d175941735')]",55.85727844673124,37.60841257908379,"Отрадная ул., 8",220,Отрадное,Gym / Fitness Center,4bf58dd8d48988d175941735
"55.8556948656625,37.610523333133266",55.8556948656625,37.61052333313327,4c7f6314fb13a1cd0376a0a4,Фитнес Тайм,"[('Gym / Fitness Center', '4bf58dd8d48988d175941735')]",55.85491729868922,37.61410330485982,"Отрадная ул., 16, 127273",239,Отрадное,Gym / Fitness Center,4bf58dd8d48988d175941735
"55.8556948656625,37.610523333133266",55.8556948656625,37.61052333313327,5140c3e9e4b064664a0635a8,"Бойцовский Клуб ""Шторм""","[('Martial Arts Dojo', '4bf58dd8d48988d101941735')]",55.85678048091119,37.611558563951775,Россия,137,Отрадное,Martial Arts Dojo,4bf58dd8d48988d101941735
"55.819536913008534,37.796109541554536",55.81953691300853,37.79610954155453,4bdfcdbd0ee3a593056e35b0,"ФОК ""Атлант""","[('Gym / Fitness Center', '4bf58dd8d48988d175941735')]",55.82141025613048,37.7971443511192,Россия,218,Гольяново,Gym / Fitness Center,4bf58dd8d48988d175941735
"55.81607950742204,37.81376229170387",55.81607950742204,37.81376229170387,4d9d4413c4b537040d80122e,Зал бокса,"[('Boxing Gym', '52f2ab2ebcbc57f1066b8b47')]",55.81711177040019,37.813049466441605,"ул. Байкальская, 42/14",123,Гольяново,Boxing Gym,52f2ab2ebcbc57f1066b8b47
"55.81434990700311,37.82258722144101",55.814349907003105,37.822587221441005,50784aafe4b07018b5a9b5aa,"ФОК ""СДЮШОР 56""","[('Gym / Fitness Center', '4bf58dd8d48988d175941735')]",55.815724453172514,37.817963923890964,Россия,327,Гольяново,Gym / Fitness Center,4bf58dd8d48988d175941735
"55.86600610303116,37.582189968917305",55.86600610303116,37.582189968917305,4f0eca02e4b0254b4e1146e7,Магнат,"[('Gym / Fitness Center', '4bf58dd8d48988d175941735')]",55.86464085708818,37.585308464160455,"Алтуфьевское ш., 28",247,Отрадное,Gym / Fitness Center,4bf58dd8d48988d175941735
"55.81951798183323,37.820835488130896",55.81951798183323,37.820835488130896,4e540df245ddffa8d1959f9d,Power,"[('Gym', '4bf58dd8d48988d176941735')]",55.82197156176883,37.82274591075824,"Алтайская 19, стр. 1а",298,Гольяново,Gym,4bf58dd8d48988d176941735
"55.81778780436025,37.82966073736882",55.81778780436024,37.82966073736882,4d012add6edfa093c50d1015,Т-Стиль,"[('Gym / Fitness Center', '4bf58dd8d48988d175941735')]",55.82065689349764,37.831929706164864,"ул. Алтайская, д. 33/7",349,Гольяново,Gym / Fitness Center,4bf58dd8d48988d175941735
"55.86431420077348,37.61580741429195",55.86431420077348,37.61580741429196,533fac17498e0cb3b51b2e3c,Батутная арена Saltus Sport,"[('Gymnastics Gym', '52f2ab2ebcbc57f1066b8b48')]",55.86275515138072,37.61917731999865,Мусоргского д.3,272,Отрадное,Gymnastics Gym,52f2ab2ebcbc57f1066b8b48
"55.87462719967077,37.58746981720017",55.87462719967077,37.58746981720017,55306c5e498ef0e6a5f01182,Shark,"[('Gym / Fitness Center', '4bf58dd8d48988d175941735')]",55.8743583468236,37.587531344031966,Алтуфьевское шоссе 44,30,Отрадное,Gym / Fitness Center,4bf58dd8d48988d175941735
"55.871197554480986,37.60517452417983",55.87119755448097,37.60517452417982,4e45651baeb70e74f485c681,Соло-спорт,"[('Gym / Fitness Center', '4bf58dd8d48988d175941735')]",55.873131801991065,37.603791992778895,"Римского-Корсакова ул., 14",231,Отрадное,Gym / Fitness Center,4bf58dd8d48988d175941735
"55.867765500342074,37.62287539136118",55.867765500342074,37.62287539136118,518f735c498e2be957ae26b8,"Фитнес-центр ""Паллада""","[('Gym / Fitness Center', '4bf58dd8d48988d175941735')]",55.867937802077215,37.622908382691385,Юрловский пр-д д.13,19,Отрадное,Gym / Fitness Center,4bf58dd8d48988d175941735
"55.890130097122714,37.58211028657124",55.890130097122714,37.58211028657124,53199e2511d28bf9e4b70908,FitCurves,"[('Gym / Fitness Center', '4bf58dd8d48988d175941735')]",55.89018261321072,37.58762803244965,Алтуфьевское Шоссе 72,344,Бибирево,Gym / Fitness Center,4bf58dd8d48988d175941735
"55.888415651293926,37.590966994166386",55.888415651293926,37.590966994166386,52e73c18498ecedae7c3e0a8,X-Fit,"[('Gym / Fitness Center', '4bf58dd8d48988d175941735')]",55.88888078920864,37.58971052803048,"Алтуфьевское ш., 70, корп. 2, 127549",93,Бибирево,Gym / Fitness Center,4bf58dd8d48988d175941735
"55.888415651293926,37.590966994166386",55.888415651293926,37.590966994166386,55ec5975498e7fc65f804734,Fitness Pro,"[('Gym / Fitness Center', '4bf58dd8d48988d175941735')]",55.889968019450464,37.59443517664951,"ул. Пришвина, 3г",277,Бибирево,Gym / Fitness Center,4bf58dd8d48988d175941735
"55.88670060263745,37.59982274127664",55.88670060263746,37.59982274127664,526cccc211d288551b07f420,Fit Curves,"[('Gym', '4bf58dd8d48988d176941735')]",55.88867748373917,37.59880794774467,Пришвина,229,Бибирево,Gym,4bf58dd8d48988d176941735
"55.87811632215615,37.644087062754785",55.87811632215615,37.644087062754785,4efc78f95c5c533f3817f790,Guru Yoga,"[('Yoga Studio', '4bf58dd8d48988d102941735')]",55.88056961426129,37.64681872376844,Proezd Schokalskogo 22,321,Северное Медведково,Yoga Studio,4bf58dd8d48988d102941735
"55.888436509774756,37.61574934719898",55.88843650977476,37.61574934719898,4e631859a80951b318ccc36a,Тиан,"[('Gym', '4bf58dd8d48988d176941735')]",55.88874254383108,37.614558935165405,Улица Плещеева 12,81,Бибирево,Gym,4bf58dd8d48988d176941735
"55.89188755529329,37.62282245834191",55.891887555293295,37.62282245834191,4eabc64e722efacf27eab42c,Училище Олимп Резерва им. Гомельского,"[('Gym / Fitness Center', '4bf58dd8d48988d175941735')]",55.89310659551775,37.621251966180274,"ул. Лескова, 25а",167,Бибирево,Gym / Fitness Center,4bf58dd8d48988d175941735
"55.89188755529329,37.62282245834191",55.891887555293295,37.62282245834191,509e2dffe4b051548dcbdf81,Fitness Pro,"[('Gym', '4bf58dd8d48988d176941735')]",55.89186293456151,37.61945679461422,"Ул. Лескова, д.32",210,Бибирево,Gym,4bf58dd8d48988d176941735
"55.89188755529329,37.62282245834191",55.891887555293295,37.62282245834191,4ffd5167e4b06558f2e96827,Фитнес-Про,"[('Gym / Fitness Center', '4bf58dd8d48988d175941735')]",55.89187851452914,37.6195600793909,"ул. Лескова, 32",203,Бибирево,Gym / Fitness Center,4bf58dd8d48988d175941735
"55.89017014599741,37.631676944141425",55.89017014599741,37.63167694414143,4f269883754a4ce2ac1a071e,Platinum Fitness,"[('Gym / Fitness Center', '4bf58dd8d48988d175941735')]",55.88929738881487,37.63195395889964,"Чермянский пр., 7, 127282",98,Северное Медведково,Gym / Fitness Center,4bf58dd8d48988d175941735
